$GNTXT,01,01,02,u-blox AG - www.u-blox.com*4E
$GNTXT,01,01,02,HW UBX-M8030 00080000*60
$GNTXT,01,01,02,EXT CORE 3.01 (111141)*39
$GNTXT,01,01,02,ROM BASE 2.01 (75331)*19
$GNTXT,01,01,02,FWVER=TIM 1.10*50
$GNTXT,01,01,02,PROTVER=22.00*18
$GNTXT,01,01,02,MOD=NEO-M8T-0*7D
$GNTXT,01,01,02,FIS=0xEF4015 (100111)*58
$GNTXT,01,01,02,GPS;GLO;GAL;BDS*77
$GNTXT,01,01,02,SBAS;IMES;QZSS*49
$GNTXT,01,01,02,GNSS OTP=GPS;GLO*37
$GNTXT,01,01,02,LLC=FFFFFFFF-FFFFFFED-FFFFFFFF-FFFFFFAE-FFFFFF69*27
$GNTXT,01,01,02,ANTSUPERV=AC SD PDoS SR*3E
$GNTXT,01,01,02,ANTSTATUS=DONTKNOW*2D
$GNTXT,01,01,02,PF=3EA*4F
$GNRMC,,V,,,,,,,,,,N*4D
$GNVTG,,,,,,,,,N*2E
$GNGGA,,,,,,0,00,99.99,,,,,,*56
$GNGSA,A,1,,,,,,,,,,,,,99.99,99.99,99.99*2E
$GNGSA,A,1,,,,,,,,,,,,,99.99,99.99,99.99*2E
$GPGSV,1,1,00*79
$GLGSV,1,1,00*65
$GNGLL,,,,,,V,N*7A
$GNZDA,,,,,00,00*56
$GNTXT,01,01,02,ANTSTATUS=INIT*3B
$GNRMC,,V,,,,,,,,,,N*4D
$GNVTG,,,,,,,,,N*2E
$GNGGA,,,,,,0,00,99.99,,,,,,*56
$GNGSA,A,1,,,,,,,,,,,,,99.99,99.99,99.99*2E
$GNGSA,A,1,,,,,,,,,,,,,99.99,99.99,99.99*2E
$GPGSV,1,1,02,06,,,48,09,,,47*7B
$GLGSV,1,1,00*65
$GNGLL,,,,,,V,N*7A
$GNZDA,,,,,00,00*56
$GNTXT,01,01,02,ANTSTATUS=OK*25
$GNRMC,,V,,,,,,,,,,N*4D
$GNVTG,,,,,,,,,N*2E
$GNGGA,,,,,,0,00,99.99,,,,,,*56
$GNGSA,A,1,,,,,,,,,,,,,99.99,99.99,99.99*2E
$GNGSA,A,1,,,,,,,,,,,,,99.99,99.99,99.99*2E
$GPGSV,1,1,03,06,,,48,09,,,47,19,,,33*72
$GLGSV,1,1,00*65
$GNGLL,,,,,,V,N*7A
$GNZDA,,,,,00,00*56
$GNRMC,,V,,,,,,,,,,N*4D
$GNVTG,,,,,,,,,N*2E
$GNGGA,,,,,,0,00,99.99,,,,,,*56
$GNGSA,A,1,,,,,,,,,,,,,99.99,99.99,99.99*2E
$GNGSA,A,1,,,,,,,,,,,,,99.99,99.99,99.99*2E
$GPGSV,1,1,03,06,,,48,09,,,47,19,,,34*75
$GLGSV,1,1,00*65
$GNGLL,,,,,,V,N*7A
$GNZDA,,,,,00,00*56
$GNRMC,,V,,,,,,,,,,N*4D
$GNVTG,,,,,,,,,N*2E
$GNGGA,,,,,,0,00,99.99,,,,,,*56
$GNGSA,A,1,,,,,,,,,,,,,99.99,99.99,99.99*2E
$GNGSA,A,1,,,,,,,,,,,,,99.99,99.99,99.99*2E
$GPGSV,1,1,03,06,,,48,09,,,47,19,,,34*75
$GLGSV,1,1,00*65
$GNGLL,,,,,,V,N*7A
$GNZDA,,,,,00,00*56
$GNRMC,,V,,,,,,,,,,N*4D
$GNVTG,,,,,,,,,N*2E
$GNGGA,,,,,,0,00,99.99,,,,,,*56
$GNGSA,A,1,,,,,,,,,,,,,99.99,99.99,99.99*2E
$GNGSA,A,1,,,,,,,,,,,,,99.99,99.99,99.99*2E
$GPGSV,1,1,03,06,,,48,09,,,47,19,,,34*75
$GLGSV,1,1,00*65
$GNGLL,,,,,,V,N*7A
$GNZDA,,,,,00,00*56
$GNRMC,,V,,,,,,,,,,N*4D
$GNVTG,,,,,,,,,N*2E
$GNGGA,,,,,,0,00,99.99,,,,,,*56
$GNGSA,A,1,,,,,,,,,,,,,99.99,99.99,99.99*2E
$GNGSA,A,1,,,,,,,,,,,,,99.99,99.99,99.99*2E
$GPGSV,1,1,03,06,,,48,09,,,48,19,,,35*7B
$GLGSV,1,1,00*65
$GNGLL,,,,,,V,N*7A
$GNZDA,,,,,00,00*56
$GNRMC,105510.70,V,,,,,,,,,,N*64
$GNVTG,,,,,,,,,N*2E
$GNGGA,105510.70,,,,,0,00,99.99,,,,,,*7F
$GNGSA,A,1,,,,,,,,,,,,,99.99,99.99,99.99*2E
$GNGSA,A,1,,,,,,,,,,,,,99.99,99.99,99.99*2E
$GPGSV,1,1,03,06,,,48,09,,,48,19,,,35*7B
$GLGSV,1,1,00*65
$GNGLL,,,,,105510.70,V,N*53
$GNZDA,105510.70,,,,00,00*7F
$GNRMC,105511.00,V,,,,,,,,,,N*62
$GNVTG,,,,,,,,,N*2E
$GNGGA,105511.00,,,,,0,00,99.99,,,,,,*79
$GNGSA,A,1,,,,,,,,,,,,,99.99,99.99,99.99*2E
$GNGSA,A,1,,,,,,,,,,,,,99.99,99.99,99.99*2E
$GPGSV,1,1,03,06,,,48,09,,,48,19,,,35*7B
$GLGSV,1,1,00*65
$GNGLL,,,,,105511.00,V,N*55
$GNZDA,105511.00,,,,00,00*79
$GNRMC,105512.00,V,,,,,,,,,,N*61
$GNVTG,,,,,,,,,N*2E
$GNGGA,105512.00,,,,,0,00,99.99,,,,,,*7A
$GNGSA,A,1,,,,,,,,,,,,,99.99,99.99,99.99*2E
$GNGSA,A,1,,,,,,,,,,,,,99.99,99.99,99.99*2E
$GPGSV,2,1,05,03,,,16,04,,,33,06,,,48,09,,,48*70
$GPGSV,2,2,05,19,,,35*72
$GLGSV,1,1,00*65
$GNGLL,,,,,105512.00,V,N*56
$GNZDA,105512.00,,,,00,00*7A
$GNRMC,105512.50,A,5154.79905,N,00234.92984,W,0.048,,131120,,,A*7B
$GNVTG,,T,,M,0.048,N,0.089,K,A*30
$GNGGA,105512.50,5154.79905,N,00234.92984,W,1,05,3.93,52.8,M,48.6,M,,*62
$GNGSA,A,3,06,09,19,03,04,,,,,,,,4.71,3.93,2.60*13
$GNGSA,A,3,,,,,,,,,,,,,4.71,3.93,2.60*13
$GPGSV,3,1,12,02,37,305,,03,22,099,28,04,51,063,34,05,02,283,*7D
$GPGSV,3,2,12,06,68,238,48,07,22,161,,09,81,170,48,17,08,215,*75
$GPGSV,3,3,12,19,17,226,35,22,02,105,,26,06,044,,30,01,180,*7B
$GLGSV,1,1,00*65
$GNGLL,5154.79905,N,00234.92984,W,105512.50,A,A*6E
$GNZDA,105512.50,13,11,2020,00,00*7D
$GNRMC,105513.00,A,5154.80361,N,00234.92910,W,0.058,,131120,,,A*7D
$GNVTG,,T,,M,0.058,N,0.107,K,A*36
$GNGGA,105513.00,5154.80361,N,00234.92910,W,1,05,3.93,47.9,M,48.6,M,,*60
$GNGSA,A,3,06,09,19,03,04,,,,,,,,4.71,3.93,2.60*13
$GNGSA,A,3,,,,,,,,,,,,,4.71,3.93,2.60*13
$GPGSV,3,1,12,02,37,305,,03,22,099,33,04,51,063,34,05,02,283,*77
$GPGSV,3,2,12,06,68,238,48,07,22,161,28,09,81,170,48,17,08,215,*7F
$GPGSV,3,3,12,19,17,226,35,22,02,105,,26,06,044,,30,01,180,*7B
$GLGSV,1,1,00*65
$GNGLL,5154.80361,N,00234.92910,W,105513.00,A,A*69
$GNZDA,105513.00,13,11,2020,00,00*79
$GNRMC,105514.00,A,5154.80043,N,00234.92838,W,0.053,,131120,,,A*79
$GNVTG,,T,,M,0.053,N,0.098,K,A*3A
$GNGGA,105514.00,5154.80043,N,00234.92838,W,1,06,1.98,50.0,M,48.6,M,,*6A
$GNGSA,A,3,06,09,19,03,04,07,,,,,,,2.89,1.98,2.10*1B
$GNGSA,A,3,,,,,,,,,,,,,2.89,1.98,2.10*1C
$GPGSV,3,1,12,02,37,305,,03,22,099,33,04,51,063,34,05,02,283,*77
$GPGSV,3,2,12,06,68,238,48,07,22,161,27,09,81,170,48,17,08,215,*70
$GPGSV,3,3,12,19,17,226,35,22,02,105,,26,06,044,,30,01,180,*7B
$GLGSV,1,1,00*65
$GNGLL,5154.80043,N,00234.92838,W,105514.00,A,A*66
$GNZDA,105514.00,13,11,2020,00,00*7E
$GNRMC,105515.00,A,5154.80031,N,00234.92752,W,0.103,,131120,,,A*7A
$GNVTG,,T,,M,0.103,N,0.190,K,A*37
$GNGGA,105515.00,5154.80031,N,00234.92752,W,1,06,1.98,49.1,M,48.6,M,,*64
$GNGSA,A,3,06,09,19,03,04,07,,,,,,,2.89,1.98,2.10*1B
$GNGSA,A,3,,,,,,,,,,,,,2.89,1.98,2.10*1C
$GPGSV,3,1,12,02,37,305,,03,22,099,32,04,51,063,34,05,02,283,*76
$GPGSV,3,2,12,06,68,238,48,07,22,161,27,09,81,170,48,17,08,215,*70
$GPGSV,3,3,12,19,17,226,35,22,02,105,,26,06,044,,30,01,180,*7B
$GLGSV,1,1,00*65
$GNGLL,5154.80031,N,00234.92752,W,105515.00,A,A*61
$GNZDA,105515.00,13,11,2020,00,00*7F
$GNRMC,105516.00,A,5154.79970,N,00234.92716,W,0.084,,131120,,,A*7D
$GNVTG,,T,,M,0.084,N,0.155,K,A*30
$GNGGA,105516.00,5154.79970,N,00234.92716,W,1,06,1.98,49.3,M,48.6,M,,*6F
$GNGSA,A,3,06,09,19,03,04,07,,,,,,,2.89,1.98,2.10*1B
$GNGSA,A,3,,,,,,,,,,,,,2.89,1.98,2.10*1C
$GPGSV,3,1,12,02,37,305,,03,22,099,32,04,51,063,34,05,02,283,*76
$GPGSV,3,2,12,06,68,238,48,07,22,161,27,09,81,170,48,17,08,215,*70
$GPGSV,3,3,12,19,17,226,35,22,02,105,,26,06,044,,30,01,180,*7B
$GLGSV,1,1,00*65
$GNGLL,5154.79970,N,00234.92716,W,105516.00,A,A*68
$GNZDA,105516.00,13,11,2020,00,00*7C
$GNRMC,105517.00,A,5154.79935,N,00234.92692,W,0.062,,131120,,,A*78
$GNVTG,,T,,M,0.062,N,0.115,K,A*3C
$GNGGA,105517.00,5154.79935,N,00234.92692,W,1,06,1.98,49.5,M,48.6,M,,*64
$GNGSA,A,3,06,09,19,03,04,07,,,,,,,2.89,1.98,2.10*1B
$GNGSA,A,3,,,,,,,,,,,,,2.89,1.98,2.10*1C
$GPGSV,3,1,12,02,37,305,,03,22,099,32,04,51,063,33,05,02,283,*71
$GPGSV,3,2,12,06,68,238,48,07,22,161,27,09,81,170,48,17,08,215,*70
$GPGSV,3,3,12,19,17,226,35,22,02,105,,26,06,044,,30,01,180,*7B
$GLGSV,1,1,00*65
$GNGLL,5154.79935,N,00234.92692,W,105517.00,A,A*65
$GNZDA,105517.00,13,11,2020,00,00*7D
$GNRMC,105518.00,A,5154.79954,N,00234.92694,W,0.043,,131120,,,A*75
$GNVTG,,T,,M,0.043,N,0.079,K,A*34
$GNGGA,105518.00,5154.79954,N,00234.92694,W,1,06,1.98,49.3,M,48.6,M,,*6C
$GNGSA,A,3,06,09,19,03,04,07,,,,,,,2.89,1.98,2.10*1B
$GNGSA,A,3,,,,,,,,,,,,,2.89,1.98,2.10*1C
$GPGSV,3,1,12,02,37,305,,03,22,099,32,04,51,063,33,05,02,283,*71
$GPGSV,3,2,12,06,68,238,48,07,22,161,27,09,81,170,48,17,08,215,*70
$GPGSV,3,3,12,19,17,226,35,22,02,105,,26,06,044,,30,01,180,*7B
$GLGSV,1,1,00*65
$GNGLL,5154.79954,N,00234.92694,W,105518.00,A,A*6B
$GNZDA,105518.00,13,11,2020,00,00*72
$GNRMC,105519.00,A,5154.79966,N,00234.92692,W,0.023,,131120,,,A*75
$GNVTG,,T,,M,0.023,N,0.043,K,A*3B
$GNGGA,105519.00,5154.79966,N,00234.92692,W,1,06,1.98,49.2,M,48.6,M,,*6B
$GNGSA,A,3,06,09,19,03,04,07,,,,,,,2.89,1.98,2.10*1B
$GNGSA,A,3,,,,,,,,,,,,,2.89,1.98,2.10*1C
$GPGSV,3,1,12,02,37,305,,03,22,099,32,04,51,063,33,05,02,283,*71
$GPGSV,3,2,12,06,68,238,48,07,22,161,27,09,81,170,48,17,08,215,*70
$GPGSV,3,3,12,19,17,226,35,22,02,105,,26,06,044,,30,01,180,*7B
$GLGSV,1,1,00*65
$GNGLL,5154.79966,N,00234.92692,W,105519.00,A,A*6D
$GNZDA,105519.00,13,11,2020,00,00*73
$GNRMC,105520.00,A,5154.79979,N,00234.92696,W,0.019,,131120,,,A*7C
$GNVTG,,T,,M,0.019,N,0.035,K,A*33
$GNGGA,105520.00,5154.79979,N,00234.92696,W,1,06,1.98,49.1,M,48.6,M,,*68
$GNGSA,A,3,06,09,19,03,04,07,,,,,,,2.89,1.98,2.10*1B
$GNGSA,A,3,,,,,,,,,,,,,2.89,1.98,2.10*1C
$GPGSV,3,1,12,02,37,305,,03,22,099,32,04,51,063,33,05,02,283,*71
$GPGSV,3,2,12,06,68,238,48,07,22,161,27,09,81,170,48,17,08,215,*70
$GPGSV,3,3,12,19,17,226,35,22,02,105,,26,06,044,,30,01,180,*7B
$GLGSV,1,1,00*65
$GNGLL,5154.79979,N,00234.92696,W,105520.00,A,A*6D
$GNZDA,105520.00,13,11,2020,00,00*79
$GNRMC,105521.00,A,5154.80010,N,00234.92711,W,0.013,,131120,,,A*79
$GNVTG,,T,,M,0.013,N,0.025,K,A*38
$GNGGA,105521.00,5154.80010,N,00234.92711,W,1,06,1.98,48.9,M,48.6,M,,*6E
$GNGSA,A,3,06,09,19,03,04,07,,,,,,,2.89,1.98,2.10*1B
$GNGSA,A,3,,,,,,,,,,,,,2.89,1.98,2.10*1C
$GPGSV,3,1,12,02,37,305,,03,22,099,32,04,51,063,33,05,02,283,*71
$GPGSV,3,2,12,06,68,238,48,07,22,161,27,09,81,170,48,17,08,215,*70
$GPGSV,3,3,12,19,17,226,35,22,02,105,,26,06,044,,30,01,180,*7B
$GLGSV,1,1,00*65
$GNGLL,5154.80010,N,00234.92711,W,105521.00,A,A*62
$GNZDA,105521.00,13,11,2020,00,00*78
$GNRMC,105522.00,A,5154.80026,N,00234.92718,W,0.010,,131120,,,A*75
$GNVTG,,T,,M,0.010,N,0.019,K,A*34
$GNGGA,105522.00,5154.80026,N,00234.92718,W,1,06,1.98,48.8,M,48.6,M,,*60
$GNGSA,A,3,06,09,19,03,04,07,,,,,,,2.89,1.98,2.10*1B
$GNGSA,A,3,,,,,,,,,,,,,2.89,1.98,2.10*1C
$GPGSV,3,1,12,02,37,305,19,03,22,099,32,04,51,063,33,05,02,283,*79
$GPGSV,3,2,12,06,68,238,48,07,22,161,27,09,81,170,48,17,08,215,*70
$GPGSV,3,3,12,19,17,226,35,22,02,105,,26,06,044,,30,01,180,*7B
$GLGSV,1,1,00*65
$GNGLL,5154.80026,N,00234.92718,W,105522.00,A,A*6D
$GNZDA,105522.00,13,11,2020,00,00*7B
$GNRMC,105523.00,A,5154.80030,N,00234.92719,W,0.004,,131120,,,A*77
$GNVTG,,T,,M,0.004,N,0.008,K,A*31
$GNGGA,105523.00,5154.80030,N,00234.92719,W,1,06,1.98,48.8,M,48.6,M,,*67
$GNGSA,A,3,06,09,19,03,04,07,,,,,,,2.89,1.98,2.10*1B
$GNGSA,A,3,,,,,,,,,,,,,2.89,1.98,2.10*1C
$GPGSV,3,1,12,02,37,305,18,03,22,099,32,04,51,063,33,05,02,283,*78
$GPGSV,3,2,12,06,68,238,48,07,22,161,28,09,81,170,48,17,08,215,*7F
$GPGSV,3,3,12,19,17,226,35,22,02,105,,26,06,044,,30,01,180,*7B
$GLGSV,1,1,00*65
$GNGLL,5154.80030,N,00234.92719,W,105523.00,A,A*6A
$GNZDA,105523.00,13,11,2020,00,00*7A
$GNRMC,105524.00,A,5154.80026,N,00234.92716,W,0.006,,131120,,,A*7A
$GNVTG,,T,,M,0.006,N,0.012,K,A*38
$GNGGA,105524.00,5154.80026,N,00234.92716,W,1,06,1.98,48.8,M,48.6,M,,*68
$GNGSA,A,3,06,09,19,03,04,07,,,,,,,2.88,1.98,2.10*1A
$GNGSA,A,3,,,,,,,,,,,,,2.88,1.98,2.10*1D
$GPGSV,3,1,12,02,37,305,18,03,22,099,33,04,51,063,33,05,02,283,*79
$GPGSV,3,2,12,06,68,238,48,07,22,161,27,09,81,170,48,17,08,215,*70
$GPGSV,3,3,12,19,17,226,35,22,02,105,,26,06,044,,30,01,180,*7B
$GLGSV,1,1,00*65
$GNGLL,5154.80026,N,00234.92716,W,105524.00,A,A*65
$GNZDA,105524.00,13,11,2020,00,00*7D
$GNRMC,105525.00,A,5154.80010,N,00234.92708,W,0.008,,131120,,,A*7F
$GNVTG,,T,,M,0.008,N,0.015,K,A*31
$GNGGA,105525.00,5154.80010,N,00234.92708,W,1,07,1.19,48.9,M,48.6,M,,*6A
$GNGSA,A,3,06,09,02,19,03,04,07,,,,,,2.02,1.19,1.64*13
$GNGSA,A,3,,,,,,,,,,,,,2.02,1.19,1.64*16
$GPGSV,3,1,12,02,37,305,17,03,22,099,32,04,51,063,33,05,02,283,*77
$GPGSV,3,2,12,06,68,238,48,07,22,161,27,09,81,170,48,17,08,215,*70
$GPGSV,3,3,12,19,17,226,35,22,02,105,,26,06,044,,30,01,180,*7B
$GLGSV,1,1,00*65
$GNGLL,5154.80010,N,00234.92708,W,105525.00,A,A*6E
$GNZDA,105525.00,13,11,2020,00,00*7C
$GNRMC,105526.00,A,5154.79991,N,00234.92697,W,0.011,,131120,,,A*75
$GNVTG,,T,,M,0.011,N,0.020,K,A*3F
$GNGGA,105526.00,5154.79991,N,00234.92697,W,1,07,1.19,49.1,M,48.6,M,,*61
$GNGSA,A,3,06,09,02,19,03,04,07,,,,,,2.02,1.19,1.64*13
$GNGSA,A,3,,,,,,,,,,,,,2.02,1.19,1.64*16
$GPGSV,3,1,12,02,37,305,16,03,22,099,32,04,51,063,33,05,02,283,*76
$GPGSV,3,2,12,06,68,238,48,07,22,161,27,09,81,170,48,17,08,215,*70
$GPGSV,3,3,12,19,17,226,35,22,02,105,,26,06,044,,30,01,180,*7B
$GLGSV,1,1,00*65
$GNGLL,5154.79991,N,00234.92697,W,105526.00,A,A*6C
$GNZDA,105526.00,13,11,2020,00,00*7F
$GNRMC,105527.00,A,5154.79975,N,00234.92688,W,0.012,,131120,,,A*73
$GNVTG,,T,,M,0.012,N,0.021,K,A*3D
$GNGGA,105527.00,5154.79975,N,00234.92688,W,1,07,1.19,49.2,M,48.6,M,,*67
$GNGSA,A,3,06,09,02,19,03,04,07,,,,,,2.02,1.19,1.64*13
$GNGSA,A,3,,,,,,,,,,,,,2.02,1.19,1.64*16
$GPGSV,3,1,12,02,37,305,15,03,22,099,33,04,51,063,33,05,02,283,*74
$GPGSV,3,2,12,06,68,238,48,07,22,161,27,09,81,170,48,17,08,215,*70
$GPGSV,3,3,12,19,17,226,35,22,02,105,,26,06,044,,30,01,180,*7B
$GLGSV,1,1,00*65
$GNGLL,5154.79975,N,00234.92688,W,105527.00,A,A*69
$GNZDA,105527.00,13,11,2020,00,00*7E
$GNRMC,105528.00,A,5154.79959,N,00234.92679,W,0.013,,131120,,,A*7D
$GNVTG,,T,,M,0.013,N,0.024,K,A*39
$GNGGA,105528.00,5154.79959,N,00234.92679,W,1,07,1.19,49.3,M,48.6,M,,*69
$GNGSA,A,3,06,09,02,19,03,04,07,,,,,,2.02,1.19,1.64*13
$GNGSA,A,3,,,,,,,,,,,,,2.02,1.19,1.64*16
$GPGSV,3,1,12,02,37,305,15,03,22,099,32,04,51,063,33,05,02,283,*75
$GPGSV,3,2,12,06,68,238,48,07,22,161,28,09,81,170,48,17,08,215,*7F
$GPGSV,3,3,12,19,17,226,36,22,02,105,,26,06,044,,30,01,180,*78
$GLGSV,1,1,00*65
$GNGLL,5154.79959,N,00234.92679,W,105528.00,A,A*66
$GNZDA,105528.00,13,11,2020,00,00*71
$GNRMC,105529.00,A,5154.79948,N,00234.92670,W,0.013,,131120,,,A*75
$GNVTG,,T,,M,0.013,N,0.024,K,A*39
$GNGGA,105529.00,5154.79948,N,00234.92670,W,1,07,1.19,49.4,M,48.6,M,,*66
$GNGSA,A,3,06,09,02,19,03,04,07,,,,,,2.02,1.19,1.64*13
$GNGSA,A,3,,,,,,,,,,,,,2.02,1.19,1.64*16
$GPGSV,3,1,12,02,37,305,17,03,22,099,33,04,51,063,32,05,02,283,*77
$GPGSV,3,2,12,06,68,238,49,07,22,161,28,09,81,169,48,17,08,215,*76
$GPGSV,3,3,12,19,17,226,36,22,02,105,,26,06,044,,30,01,180,*78
$GLGSV,1,1,00*65
$GNGLL,5154.79948,N,00234.92670,W,105529.00,A,A*6E
$GNZDA,105529.00,13,11,2020,00,00*70
$GNRMC,105530.00,A,5154.79934,N,00234.92661,W,0.015,,131120,,,A*70
$GNVTG,,T,,M,0.015,N,0.027,K,A*3C
$GNGGA,105530.00,5154.79934,N,00234.92661,W,1,07,1.19,49.6,M,48.6,M,,*67
$GNGSA,A,3,06,09,02,19,03,04,07,,,,,,2.02,1.19,1.63*14
$GNGSA,A,3,,,,,,,,,,,,,2.02,1.19,1.63*11
$GPGSV,3,1,12,02,37,305,17,03,22,099,33,04,51,063,33,05,02,283,*76
$GPGSV,3,2,12,06,68,238,49,07,22,161,27,09,81,169,48,17,08,215,*79
$GPGSV,3,3,12,19,17,226,36,22,02,105,,26,06,044,,30,01,180,*78
$GLGSV,1,1,00*65
$GNGLL,5154.79934,N,00234.92661,W,105530.00,A,A*6D
$GNZDA,105530.00,13,11,2020,00,00*78
$GNRMC,105531.00,A,5154.79927,N,00234.92657,W,0.015,,131120,,,A*76
$GNVTG,,T,,M,0.015,N,0.027,K,A*3C
$GNGGA,105531.00,5154.79927,N,00234.92657,W,1,07,1.19,49.6,M,48.6,M,,*61
$GNGSA,A,3,06,09,02,19,03,04,07,,,,,,2.02,1.19,1.63*14
$GNGSA,A,3,,,,,,,,,,,,,2.02,1.19,1.63*11
$GPGSV,3,1,12,02,37,305,17,03,22,099,33,04,51,063,33,05,02,283,*76
$GPGSV,3,2,12,06,68,238,49,07,22,161,27,09,81,169,48,17,08,215,*79
$GPGSV,3,3,12,19,17,226,36,22,02,105,,26,06,044,,30,01,180,*78
$GLGSV,1,1,00*65
$GNGLL,5154.79927,N,00234.92657,W,105531.00,A,A*6B
$GNZDA,105531.00,13,11,2020,00,00*79
$GNRMC,105532.00,A,5154.79921,N,00234.92653,W,0.015,,131120,,,A*77
$GNVTG,,T,,M,0.015,N,0.028,K,A*33
$GNGGA,105532.00,5154.79921,N,00234.92653,W,1,07,1.19,49.7,M,48.6,M,,*61
$GNGSA,A,3,06,09,02,19,03,04,07,,,,,,2.02,1.19,1.63*14
$GNGSA,A,3,,,,,,,,,,,,,2.02,1.19,1.63*11
$GPGSV,3,1,12,02,37,305,17,03,22,099,33,04,51,063,32,05,02,283,*77
$GPGSV,3,2,12,06,68,238,49,07,22,161,28,09,81,169,48,17,08,215,*76
$GPGSV,3,3,12,19,17,226,36,22,02,105,,26,06,044,,30,01,180,*78
$GLGSV,1,1,00*65
$GNGLL,5154.79921,N,00234.92653,W,105532.00,A,A*6A
$GNZDA,105532.00,13,11,2020,00,00*7A
$GNRMC,105533.00,A,5154.79917,N,00234.92652,W,0.012,,131120,,,A*75
$GNVTG,,T,,M,0.012,N,0.022,K,A*3E
$GNGGA,105533.00,5154.79917,N,00234.92652,W,1,07,1.19,49.7,M,48.6,M,,*64
$GNGSA,A,3,06,09,02,19,03,04,07,,,,,,2.02,1.19,1.63*14
$GNGSA,A,3,,,,,,,,,,,,,2.02,1.19,1.63*11
$GPGSV,3,1,12,02,37,305,15,03,22,099,33,04,51,063,32,05,02,283,*75
$GPGSV,3,2,12,06,68,238,49,07,22,161,28,09,81,169,48,17,08,215,*76
$GPGSV,3,3,12,19,17,226,36,22,02,105,,26,06,044,,30,01,180,*78
$GLGSV,1,1,00*65
$GNGLL,5154.79917,N,00234.92652,W,105533.00,A,A*6F
$GNZDA,105533.00,13,11,2020,00,00*7B
$GNRMC,105534.00,A,5154.79915,N,00234.92650,W,0.008,,131120,,,A*79
$GNVTG,,T,,M,0.008,N,0.015,K,A*31
$GNGGA,105534.00,5154.79915,N,00234.92650,W,1,07,1.19,49.8,M,48.6,M,,*6C
$GNGSA,A,3,06,09,02,19,03,04,07,,,,,,2.02,1.19,1.63*14
$GNGSA,A,3,,,,,,,,,,,,,2.02,1.19,1.63*11
$GPGSV,3,1,12,02,37,305,15,03,22,099,32,04,51,063,32,05,02,283,*74
$GPGSV,3,2,12,06,68,238,49,07,22,161,28,09,81,169,48,17,08,215,*76
$GPGSV,3,3,12,19,17,226,36,22,02,105,,26,06,044,,30,01,180,*78
$GLGSV,1,1,00*65
$GNGLL,5154.79915,N,00234.92650,W,105534.00,A,A*68
$GNZDA,105534.00,13,11,2020,00,00*7C
$GNRMC,105535.00,A,5154.79909,N,00234.92646,W,0.007,,131120,,,A*7D
$GNVTG,,T,,M,0.007,N,0.013,K,A*38
$GNGGA,105535.00,5154.79909,N,00234.92646,W,1,07,1.19,49.9,M,48.6,M,,*66
$GNGSA,A,3,06,09,02,19,03,04,07,,,,,,2.02,1.19,1.63*14
$GNGSA,A,3,,,,,,,,,,,,,2.02,1.19,1.63*11
$GPGSV,3,1,12,02,37,305,16,03,22,099,32,04,51,063,32,05,02,283,*77
$GPGSV,3,2,12,06,68,238,49,07,22,161,28,09,81,169,48,17,08,215,16*71
$GPGSV,3,3,12,19,17,226,36,22,02,105,,26,06,044,,30,01,180,*78
$GLGSV,1,1,00*65
$GNGLL,5154.79909,N,00234.92646,W,105535.00,A,A*63
$GNZDA,105535.00,13,11,2020,00,00*7D
$GNRMC,105536.00,A,5154.79905,N,00234.92642,W,0.007,,131120,,,A*76
$GNVTG,,T,,M,0.007,N,0.014,K,A*3F
$GNGGA,105536.00,5154.79905,N,00234.92642,W,1,07,1.19,50.0,M,48.6,M,,*6C
$GNGSA,A,3,06,09,02,19,03,04,07,,,,,,2.02,1.19,1.63*14
$GNGSA,A,3,,,,,,,,,,,,,2.02,1.19,1.63*11
$GPGSV,3,1,12,02,37,305,16,03,22,099,32,04,51,063,32,05,02,283,*77
$GPGSV,3,2,12,06,68,238,49,07,22,161,28,09,81,169,48,17,08,215,16*71
$GPGSV,3,3,12,19,17,226,36,22,02,105,,26,06,044,,30,01,180,*78
$GLGSV,1,1,00*65
$GNGLL,5154.79905,N,00234.92642,W,105536.00,A,A*68
$GNZDA,105536.00,13,11,2020,00,00*7E
$GNRMC,105537.00,A,5154.79900,N,00234.92639,W,0.009,,131120,,,A*70
$GNVTG,,T,,M,0.009,N,0.016,K,A*33
$GNGGA,105537.00,5154.79900,N,00234.92639,W,1,07,1.19,50.1,M,48.6,M,,*65
$GNGSA,A,3,06,09,02,19,03,04,07,,,,,,2.02,1.19,1.63*14
$GNGSA,A,3,,,,,,,,,,,,,2.02,1.19,1.63*11
$GPGSV,3,1,12,02,37,305,17,03,22,099,32,04,51,063,32,05,02,283,*76
$GPGSV,3,2,12,06,68,238,49,07,22,161,28,09,81,169,48,17,07,215,15*7D
$GPGSV,3,3,12,19,17,226,36,22,02,105,,26,06,044,,30,01,180,*78
$GLGSV,1,1,00*65
$GNGLL,5154.79900,N,00234.92639,W,105537.00,A,A*60
$GNZDA,105537.00,13,11,2020,00,00*7F
$GNRMC,105538.00,A,5154.79897,N,00234.92636,W,0.008,,131120,,,A*7E
$GNVTG,,T,,M,0.008,N,0.015,K,A*31
$GNGGA,105538.00,5154.79897,N,00234.92636,W,1,07,1.19,50.1,M,48.6,M,,*6A
$GNGSA,A,3,06,09,02,19,03,04,07,,,,,,2.02,1.19,1.63*14
$GNGSA,A,3,,,,,,,,,,,,,2.02,1.19,1.63*11
$GPGSV,3,1,12,02,37,305,17,03,22,099,32,04,51,063,31,05,02,283,*75
$GPGSV,3,2,12,06,68,238,49,07,22,161,28,09,81,169,48,17,07,215,12*7A
$GPGSV,3,3,12,19,17,226,36,22,02,105,,26,06,044,,30,01,180,*78
$GLGSV,1,1,00*65
$GNGLL,5154.79897,N,00234.92636,W,105538.00,A,A*6F
$GNZDA,105538.00,13,11,2020,00,00*70
$GNRMC,105539.00,A,5154.79894,N,00234.92633,W,0.007,,131120,,,A*76
$GNVTG,,T,,M,0.007,N,0.013,K,A*38
$GNGGA,105539.00,5154.79894,N,00234.92633,W,1,07,1.19,50.2,M,48.6,M,,*6E
$GNGSA,A,3,06,09,02,19,03,04,07,,,,,,2.02,1.19,1.63*14
$GNGSA,A,3,,,,,,,,,,,,,2.02,1.19,1.63*11
$GPGSV,3,1,12,02,37,305,16,03,22,099,32,04,51,063,31,05,02,283,*74
$GPGSV,3,2,12,06,68,238,49,07,22,161,28,09,81,169,48,17,07,215,*79
$GPGSV,3,3,12,19,17,226,36,22,02,105,,26,06,044,,30,01,180,*78
$GLGSV,1,1,00*65
$GNGLL,5154.79894,N,00234.92633,W,105539.00,A,A*68
$GNZDA,105539.00,13,11,2020,00,00*71
$GNRMC,105540.00,A,5154.79890,N,00234.92629,W,0.006,,131120,,,A*76
$GNVTG,,T,,M,0.006,N,0.011,K,A*3B
$GNGGA,105540.00,5154.79890,N,00234.92629,W,1,07,1.19,50.3,M,48.6,M,,*6E
$GNGSA,A,3,06,09,02,19,03,04,07,,,,,,2.02,1.19,1.63*14
$GNGSA,A,3,,,,,,,,,,,,,2.02,1.19,1.63*11
$GPGSV,3,1,12,02,37,305,15,03,22,099,32,04,51,063,31,05,02,283,*77
$GPGSV,3,2,12,06,68,238,49,07,22,161,28,09,81,169,48,17,07,215,*79
$GPGSV,3,3,12,19,17,226,36,22,02,105,,26,06,044,,30,01,180,*78
$GLGSV,1,1,00*65
$GNGLL,5154.79890,N,00234.92629,W,105540.00,A,A*69
$GNZDA,105540.00,13,11,2020,00,00*7F
$GNRMC,105541.00,A,5154.79884,N,00234.92625,W,0.005,,131120,,,A*7D
$GNVTG,,T,,M,0.005,N,0.009,K,A*31
$GNGGA,105541.00,5154.79884,N,00234.92625,W,1,07,1.19,50.3,M,48.6,M,,*66
$GNGSA,A,3,06,09,02,19,03,04,07,,,,,,2.02,1.19,1.63*14
$GNGSA,A,3,,,,,,,,,,,,,2.02,1.19,1.63*11
$GPGSV,3,1,12,02,37,305,16,03,22,099,32,04,51,063,31,05,02,283,*74
$GPGSV,3,2,12,06,68,238,49,07,22,161,28,09,81,169,48,17,07,215,14*7C
$GPGSV,3,3,12,19,17,226,36,22,02,105,,26,06,044,,30,01,180,*78
$GLGSV,1,1,00*65
$GNGLL,5154.79884,N,00234.92625,W,105541.00,A,A*61
$GNZDA,105541.00,13,11,2020,00,00*7E
$GNRMC,105542.00,A,5154.79880,N,00234.92621,W,0.004,,131120,,,A*7F
$GNVTG,,T,,M,0.004,N,0.007,K,A*3E
$GNGGA,105542.00,5154.79880,N,00234.92621,W,1,07,1.19,50.4,M,48.6,M,,*62
$GNGSA,A,3,06,09,02,19,03,04,07,,,,,,2.02,1.19,1.63*14
$GNGSA,A,3,,,,,,,,,,,,,2.02,1.19,1.63*11
$GPGSV,3,1,12,02,37,305,16,03,22,099,32,04,51,063,31,05,02,283,*74
$GPGSV,3,2,12,06,68,238,49,07,22,161,28,09,81,169,48,17,07,215,14*7C
$GPGSV,3,3,12,19,17,226,36,22,02,105,,26,06,044,,30,01,180,*78
$GLGSV,1,1,00*65
$GNGLL,5154.79880,N,00234.92621,W,105542.00,A,A*62
$GNZDA,105542.00,13,11,2020,00,00*7D
$GNRMC,105543.00,A,5154.79874,N,00234.92617,W,0.005,,131120,,,A*71
$GNVTG,,T,,M,0.005,N,0.010,K,A*39
$GNGGA,105543.00,5154.79874,N,00234.92617,W,1,07,1.19,50.4,M,48.6,M,,*6D
$GNGSA,A,3,06,09,02,19,03,04,07,,,,,,2.02,1.19,1.63*14
$GNGSA,A,3,,,,,,,,,,,,,2.02,1.19,1.63*11
$GPGSV,3,1,12,02,37,305,16,03,22,099,32,04,51,063,31,05,02,283,*74
$GPGSV,3,2,12,06,68,238,49,07,22,161,28,09,81,169,48,17,07,215,13*7B
$GPGSV,3,3,12,19,17,226,36,22,02,105,,26,06,044,,30,01,180,*78
$GLGSV,1,1,00*65
$GNGLL,5154.79874,N,00234.92617,W,105543.00,A,A*6D
$GNZDA,105543.00,13,11,2020,00,00*7C
$GNRMC,105544.00,A,5154.79865,N,00234.92611,W,0.007,,131120,,,A*72
$GNVTG,,T,,M,0.007,N,0.012,K,A*39
$GNGGA,105544.00,5154.79865,N,00234.92611,W,1,07,1.19,50.5,M,48.6,M,,*6D
$GNGSA,A,3,06,09,02,19,03,04,07,,,,,,2.02,1.19,1.63*14
$GNGSA,A,3,,,,,,,,,,,,,2.02,1.19,1.63*11
$GPGSV,3,1,12,02,37,305,16,03,22,099,32,04,51,063,31,05,02,283,*74
$GPGSV,3,2,12,06,68,238,49,07,22,161,28,09,81,169,48,17,07,215,13*7B
$GPGSV,3,3,12,19,17,226,36,22,02,105,,26,06,044,,30,01,180,*78
$GLGSV,1,1,00*65
$GNGLL,5154.79865,N,00234.92611,W,105544.00,A,A*6C
$GNZDA,105544.00,13,11,2020,00,00*7B
$GNRMC,105545.00,A,5154.79859,N,00234.92607,W,0.009,,131120,,,A*75
$GNVTG,,T,,M,0.009,N,0.017,K,A*32
$GNGGA,105545.00,5154.79859,N,00234.92607,W,1,08,1.16,50.6,M,48.6,M,,*67
$GNGSA,A,3,06,09,02,19,03,04,07,17,,,,,1.90,1.16,1.51*14
$GNGSA,A,3,,,,,,,,,,,,,1.90,1.16,1.51*17
$GPGSV,3,1,12,02,37,305,17,03,22,099,32,04,51,063,31,05,02,283,*75
$GPGSV,3,2,12,06,68,238,49,07,22,161,28,09,81,169,48,17,07,215,15*7D
$GPGSV,3,3,12,19,17,226,36,22,02,105,,26,06,044,,30,01,180,*78
$GLGSV,1,1,00*65
$GNGLL,5154.79859,N,00234.92607,W,105545.00,A,A*65
$GNZDA,105545.00,13,11,2020,00,00*7A
$GNRMC,105546.00,A,5154.79852,N,00234.92603,W,0.010,,131120,,,A*71
$GNVTG,,T,,M,0.010,N,0.018,K,A*35
$GNGGA,105546.00,5154.79852,N,00234.92603,W,1,08,1.16,50.7,M,48.6,M,,*6A
$GNGSA,A,3,06,09,02,19,03,04,07,17,,,,,1.90,1.16,1.51*14
$GNGSA,A,3,,,,,,,,,,,,,1.90,1.16,1.51*17
$GPGSV,3,1,12,02,37,305,16,03,22,099,32,04,51,063,31,05,02,283,*74
$GPGSV,3,2,12,06,68,238,49,07,22,161,28,09,81,169,48,17,07,215,15*7D
$GPGSV,3,3,12,19,17,226,36,22,02,105,,26,06,044,,30,01,180,*78
$GLGSV,1,1,00*65
$GNGLL,5154.79852,N,00234.92603,W,105546.00,A,A*69
$GNZDA,105546.00,13,11,2020,00,00*79
$GNRMC,105547.00,A,5154.79844,N,00234.92598,W,0.012,,131120,,,A*74
$GNVTG,,T,,M,0.012,N,0.022,K,A*3E
$GNGGA,105547.00,5154.79844,N,00234.92598,W,1,08,1.16,50.8,M,48.6,M,,*62
$GNGSA,A,3,06,09,02,19,03,04,07,17,,,,,1.90,1.16,1.51*14
$GNGSA,A,3,,,,,,,,,,,,,1.90,1.16,1.51*17
$GPGSV,3,1,12,02,37,305,16,03,22,099,32,04,51,063,31,05,02,283,*74
$GPGSV,3,2,12,06,68,238,49,07,22,161,28,09,81,169,48,17,07,215,16*7E
$GPGSV,3,3,12,19,17,226,36,22,02,105,,26,06,044,,30,01,180,*78
$GLGSV,1,1,00*65
$GNGLL,5154.79844,N,00234.92598,W,105547.00,A,A*6E
$GNZDA,105547.00,13,11,2020,00,00*78
$GNRMC,105548.00,A,5154.79836,N,00234.92593,W,0.013,,131120,,,A*74
$GNVTG,,T,,M,0.013,N,0.025,K,A*38
$GNGGA,105548.00,5154.79836,N,00234.92593,W,1,08,1.16,50.9,M,48.6,M,,*62
$GNGSA,A,3,06,09,02,19,03,04,07,17,,,,,1.90,1.16,1.51*14
$GNGSA,A,3,,,,,,,,,,,,,1.90,1.16,1.51*17
$GPGSV,3,1,12,02,37,305,15,03,22,099,32,04,51,063,31,05,02,283,*77
$GPGSV,3,2,12,06,68,238,49,07,22,161,28,09,81,169,48,17,07,215,16*7E
$GPGSV,3,3,12,19,17,226,36,22,02,105,,26,06,044,,30,01,180,*78
$GLGSV,1,1,00*65
$GNGLL,5154.79836,N,00234.92593,W,105548.00,A,A*6F
$GNZDA,105548.00,13,11,2020,00,00*77
$GNRMC,105549.00,A,5154.79834,N,00234.92590,W,0.013,,131120,,,A*74
$GNVTG,,T,,M,0.013,N,0.023,K,A*3E
$GNGGA,105549.00,5154.79834,N,00234.92590,W,1,08,1.16,51.0,M,48.6,M,,*6A
$GNGSA,A,3,06,09,02,19,03,04,07,17,,,,,1.90,1.16,1.51*14
$GNGSA,A,3,,,,,,,,,,,,,1.90,1.16,1.51*17
$GPGSV,3,1,12,02,37,305,14,03,22,099,32,04,51,063,31,05,02,283,*76
$GPGSV,3,2,12,06,68,238,49,07,22,161,28,09,81,169,48,17,07,215,16*7E
$GPGSV,3,3,12,19,17,226,36,22,02,105,,26,06,044,,30,01,180,*78
$GLGSV,1,1,00*65
$GNGLL,5154.79834,N,00234.92590,W,105549.00,A,A*6F
$GNZDA,105549.00,13,11,2020,00,00*76
$GNRMC,105550.00,A,5154.79831,N,00234.92588,W,0.013,,131120,,,A*70
$GNVTG,,T,,M,0.013,N,0.023,K,A*3E
$GNGGA,105550.00,5154.79831,N,00234.92588,W,1,08,1.16,51.1,M,48.6,M,,*6F
$GNGSA,A,3,06,09,02,19,03,04,07,17,,,,,1.90,1.16,1.51*14
$GNGSA,A,3,,,,,,,,,,,,,1.90,1.16,1.51*17
$GPGSV,3,1,12,02,37,305,14,03,22,099,32,04,51,063,31,05,02,283,*76
$GPGSV,3,2,12,06,68,238,49,07,22,161,28,09,81,169,48,17,07,215,17*7F
$GPGSV,3,3,12,19,17,226,36,22,02,105,,26,06,044,,30,01,180,*78
$GLGSV,1,1,00*65
$GNGLL,5154.79831,N,00234.92588,W,105550.00,A,A*6B
$GNZDA,105550.00,13,11,2020,00,00*7E
$GNRMC,105551.00,A,5154.79827,N,00234.92585,W,0.012,,131120,,,A*7A
$GNVTG,,T,,M,0.012,N,0.023,K,A*3F
$GNGGA,105551.00,5154.79827,N,00234.92585,W,1,08,1.16,51.1,M,48.6,M,,*64
$GNGSA,A,3,06,09,02,19,03,04,07,17,,,,,1.90,1.16,1.51*14
$GNGSA,A,3,,,,,,,,,,,,,1.90,1.16,1.51*17
$GPGSV,3,1,12,02,37,305,14,03,22,099,32,04,51,063,30,05,02,283,*77
$GPGSV,3,2,12,06,68,238,49,07,22,161,28,09,81,169,48,17,07,215,16*7E
$GPGSV,3,3,12,19,17,226,36,22,02,105,,26,06,044,,30,01,180,*78
$GLGSV,1,1,00*65
$GNGLL,5154.79827,N,00234.92585,W,105551.00,A,A*60
$GNZDA,105551.00,13,11,2020,00,00*7F
$GNRMC,105552.00,A,5154.79823,N,00234.92582,W,0.013,,131120,,,A*7B
$GNVTG,,T,,M,0.013,N,0.024,K,A*39
$GNGGA,105552.00,5154.79823,N,00234.92582,W,1,08,1.16,51.2,M,48.6,M,,*67
$GNGSA,A,3,06,09,02,19,03,04,07,17,,,,,1.90,1.16,1.51*14
$GNGSA,A,3,,,,,,,,,,,,,1.90,1.16,1.51*17
$GPGSV,3,1,12,02,37,305,14,03,22,099,32,04,51,063,30,05,02,283,*77
$GPGSV,3,2,12,06,68,238,49,07,22,161,28,09,81,169,48,17,07,215,16*7E
$GPGSV,3,3,12,19,17,226,36,22,02,105,,26,06,044,,30,01,180,*78
$GLGSV,1,1,00*65
$GNGLL,5154.79823,N,00234.92582,W,105552.00,A,A*60
$GNZDA,105552.00,13,11,2020,00,00*7C
$GNRMC,105553.00,A,5154.79820,N,00234.92578,W,0.014,,131120,,,A*7B
$GNVTG,,T,,M,0.014,N,0.025,K,A*3F
$GNGGA,105553.00,5154.79820,N,00234.92578,W,1,08,1.16,51.2,M,48.6,M,,*60
$GNGSA,A,3,06,09,02,19,03,04,07,17,,,,,1.90,1.16,1.51*14
$GNGSA,A,3,,,,,,,,,,,,,1.90,1.16,1.51*17
$GPGSV,3,1,12,02,37,305,14,03,22,099,32,04,51,063,30,05,02,283,*77
$GPGSV,3,2,12,06,68,238,49,07,22,161,27,09,81,169,48,17,07,215,15*72
$GPGSV,3,3,12,19,17,226,36,22,02,105,,26,06,044,,30,01,180,*78
$GLGSV,1,1,00*65
$GNGLL,5154.79820,N,00234.92578,W,105553.00,A,A*67
$GNZDA,105553.00,13,11,2020,00,00*7D
$GNRMC,105554.00,A,5154.79817,N,00234.92574,W,0.014,,131120,,,A*74
$GNVTG,,T,,M,0.014,N,0.025,K,A*3F
$GNGGA,105554.00,5154.79817,N,00234.92574,W,1,08,1.16,51.3,M,48.6,M,,*6E
$GNGSA,A,3,06,09,02,19,03,04,07,17,,,,,1.90,1.16,1.51*14
$GNGSA,A,3,,,,,,,,,,,,,1.90,1.16,1.51*17
$GPGSV,3,1,12,02,37,305,15,03,22,099,32,04,51,063,30,05,02,283,*76
$GPGSV,3,2,12,06,68,238,49,07,22,161,28,09,81,169,48,17,07,215,15*7D
$GPGSV,3,3,12,19,17,226,36,22,02,105,,26,06,044,,30,01,180,*78
$GLGSV,1,1,00*65
$GNGLL,5154.79817,N,00234.92574,W,105554.00,A,A*68
$GNZDA,105554.00,13,11,2020,00,00*7A
$GNRMC,105555.00,A,5154.79813,N,00234.92570,W,0.013,,131120,,,A*72
$GNVTG,,T,,M,0.013,N,0.025,K,A*38
$GNGGA,105555.00,5154.79813,N,00234.92570,W,1,08,1.16,51.4,M,48.6,M,,*68
$GNGSA,A,3,06,09,02,19,03,04,07,17,,,,,1.90,1.16,1.51*14
$GNGSA,A,3,,,,,,,,,,,,,1.90,1.16,1.51*17
$GPGSV,3,1,12,02,37,305,14,03,22,099,32,04,51,063,30,05,02,283,*77
$GPGSV,3,2,12,06,68,238,49,07,22,161,28,09,81,169,48,17,07,215,13*7B
$GPGSV,3,3,12,19,17,226,36,22,02,105,,26,06,044,,30,01,180,*78
$GLGSV,1,1,00*65
$GNGLL,5154.79813,N,00234.92570,W,105555.00,A,A*69
$GNZDA,105555.00,13,11,2020,00,00*7B
$GNRMC,105556.00,A,5154.79810,N,00234.92567,W,0.013,,131120,,,A*74
$GNVTG,,T,,M,0.013,N,0.023,K,A*3E
$GNGGA,105556.00,5154.79810,N,00234.92567,W,1,08,1.16,51.4,M,48.6,M,,*6E
$GNGSA,A,3,06,09,02,19,03,04,07,17,,,,,1.90,1.16,1.51*14
$GNGSA,A,3,,,,,,,,,,,,,1.90,1.16,1.51*17
$GPGSV,3,1,12,02,37,305,14,03,22,099,32,04,51,063,30,05,02,283,*77
$GPGSV,3,2,12,06,68,238,49,07,22,161,28,09,81,169,48,17,07,215,12*7A
$GPGSV,3,3,12,19,17,226,36,22,02,105,,26,06,044,,30,01,180,*78
$GLGSV,1,1,00*65
$GNGLL,5154.79810,N,00234.92567,W,105556.00,A,A*6F
$GNZDA,105556.00,13,11,2020,00,00*78
$GNRMC,105557.00,A,5154.79810,N,00234.92565,W,0.012,,131120,,,A*76
$GNVTG,,T,,M,0.012,N,0.023,K,A*3F
$GNGGA,105557.00,5154.79810,N,00234.92565,W,1,08,1.16,51.4,M,48.6,M,,*6D
$GNGSA,A,3,06,09,02,19,03,04,07,17,,,,,1.90,1.16,1.51*14
$GNGSA,A,3,,,,,,,,,,,,,1.90,1.16,1.51*17
$GPGSV,3,1,12,02,37,305,14,03,22,099,32,04,51,063,30,05,02,283,*77
$GPGSV,3,2,12,06,68,238,49,07,22,161,28,09,81,169,48,17,07,215,12*7A
$GPGSV,3,3,12,19,17,226,36,22,02,105,,26,06,044,,30,01,180,*78
$GLGSV,1,1,00*65
$GNGLL,5154.79810,N,00234.92565,W,105557.00,A,A*6C
$GNZDA,105557.00,13,11,2020,00,00*79
$GNRMC,105558.00,A,5154.79808,N,00234.92561,W,0.012,,131120,,,A*74
$GNVTG,,T,,M,0.012,N,0.022,K,A*3E
$GNGGA,105558.00,5154.79808,N,00234.92561,W,1,08,1.16,51.4,M,48.6,M,,*6F
$GNGSA,A,3,06,09,02,19,03,04,07,17,,,,,1.90,1.16,1.51*14
$GNGSA,A,3,,,,,,,,,,,,,1.90,1.16,1.51*17
$GPGSV,3,1,12,02,37,305,13,03,22,099,32,04,51,063,30,05,02,283,*70
$GPGSV,3,2,12,06,68,238,49,07,22,161,28,09,81,169,48,17,07,215,14*7C
$GPGSV,3,3,12,19,17,226,36,22,02,105,,26,06,044,,30,01,180,*78
$GLGSV,1,1,00*65
$GNGLL,5154.79808,N,00234.92561,W,105558.00,A,A*6E
$GNZDA,105558.00,13,11,2020,00,00*76
$GNRMC,105559.00,A,5154.79807,N,00234.92558,W,0.012,,131120,,,A*70
$GNVTG,,T,,M,0.012,N,0.022,K,A*3E
$GNGGA,105559.00,5154.79807,N,00234.92558,W,1,08,1.16,51.4,M,48.6,M,,*6B
$GNGSA,A,3,06,09,02,19,03,04,07,17,,,,,1.90,1.16,1.51*14
$GNGSA,A,3,,,,,,,,,,,,,1.90,1.16,1.51*17
$GPGSV,3,1,12,02,37,305,14,03,22,099,31,04,51,063,30,05,02,283,*74
$GPGSV,3,2,12,06,68,238,49,07,22,161,28,09,81,169,48,17,07,215,14*7C
$GPGSV,3,3,12,19,17,226,36,22,02,105,,26,06,044,,30,01,180,*78
$GLGSV,1,1,00*65
$GNGLL,5154.79807,N,00234.92558,W,105559.00,A,A*6A
$GNZDA,105559.00,13,11,2020,00,00*77
$GNRMC,105600.00,A,5154.79801,N,00234.92555,W,0.012,,131120,,,A*74
$GNVTG,,T,,M,0.012,N,0.022,K,A*3E
$GNGGA,105600.00,5154.79801,N,00234.92555,W,1,08,1.16,51.5,M,48.6,M,,*6E
$GNGSA,A,3,06,09,02,19,03,04,07,17,,,,,1.90,1.16,1.50*15
$GNGSA,A,3,,,,,,,,,,,,,1.90,1.16,1.50*16
$GPGSV,3,1,12,02,37,305,14,03,22,099,31,04,51,063,30,05,02,283,*74
$GPGSV,3,2,12,06,68,238,49,07,22,161,28,09,81,169,48,17,07,215,14*7C
$GPGSV,3,3,12,19,17,226,36,22,02,105,,26,06,044,,30,01,180,*78
$GLGSV,1,1,00*65
$GNGLL,5154.79801,N,00234.92555,W,105600.00,A,A*6E
$GNZDA,105600.00,13,11,2020,00,00*78
$GNRMC,105601.00,A,5154.79795,N,00234.92552,W,0.012,,131120,,,A*70
$GNVTG,,T,,M,0.012,N,0.023,K,A*3F
$GNGGA,105601.00,5154.79795,N,00234.92552,W,1,08,1.16,51.6,M,48.6,M,,*69
$GNGSA,A,3,06,09,02,19,03,04,07,17,,,,,1.90,1.16,1.50*15
$GNGSA,A,3,,,,,,,,,,,,,1.90,1.16,1.50*16
$GPGSV,3,1,12,02,37,305,15,03,22,099,31,04,51,063,30,05,02,283,*75
$GPGSV,3,2,12,06,68,238,49,07,22,161,28,09,81,169,48,17,07,215,14*7C
$GPGSV,3,3,12,19,17,226,36,22,02,105,,26,06,044,,30,01,180,*78
$GLGSV,1,1,00*65
$GNGLL,5154.79795,N,00234.92552,W,105601.00,A,A*6A
$GNZDA,105601.00,13,11,2020,00,00*79
$GNRMC,105602.00,A,5154.79790,N,00234.92549,W,0.013,,131120,,,A*7D
$GNVTG,,T,,M,0.013,N,0.024,K,A*39
$GNGGA,105602.00,5154.79790,N,00234.92549,W,1,08,1.16,51.7,M,48.6,M,,*64
$GNGSA,A,3,06,09,02,19,03,04,07,17,,,,,1.90,1.16,1.50*15
$GNGSA,A,3,,,,,,,,,,,,,1.90,1.16,1.50*16
$GPGSV,3,1,12,02,37,305,14,03,22,099,31,04,51,063,30,05,02,283,*74
$GPGSV,3,2,12,06,68,238,49,07,22,161,28,09,81,169,48,17,07,215,14*7C
$GPGSV,3,3,12,19,17,226,36,22,02,105,,26,06,044,,30,01,180,*78
$GLGSV,1,1,00*65
$GNGLL,5154.79790,N,00234.92549,W,105602.00,A,A*66
$GNZDA,105602.00,13,11,2020,00,00*7A
$GNRMC,105603.00,A,5154.79784,N,00234.92545,W,0.014,,131120,,,A*72
$GNVTG,,T,,M,0.014,N,0.026,K,A*3C
$GNGGA,105603.00,5154.79784,N,00234.92545,W,1,08,1.16,51.7,M,48.6,M,,*6C
$GNGSA,A,3,06,09,02,19,03,04,07,17,,,,,1.90,1.16,1.50*15
$GNGSA,A,3,,,,,,,,,,,,,1.90,1.16,1.50*16
$GPGSV,3,1,12,02,37,305,15,03,22,099,31,04,51,063,30,05,02,283,*75
$GPGSV,3,2,12,06,68,238,49,07,22,161,28,09,81,169,48,17,07,215,15*7D
$GPGSV,3,3,12,19,17,226,36,22,02,105,,26,06,044,,30,01,180,*78
$GLGSV,1,1,00*65
$GNGLL,5154.79784,N,00234.92545,W,105603.00,A,A*6E
$GNZDA,105603.00,13,11,2020,00,00*7B
$GNRMC,105604.00,A,5154.79774,N,00234.92539,W,0.017,,131120,,,A*72
$GNVTG,,T,,M,0.017,N,0.032,K,A*3A
$GNGGA,105604.00,5154.79774,N,00234.92539,W,1,08,1.16,51.8,M,48.6,M,,*60
$GNGSA,A,3,06,09,02,19,03,04,07,17,,,,,1.90,1.16,1.50*15
$GNGSA,A,3,,,,,,,,,,,,,1.90,1.16,1.50*16
$GPGSV,3,1,12,02,37,305,15,03,21,099,31,04,51,063,30,05,02,283,*76
$GPGSV,3,2,12,06,68,238,49,07,22,161,28,09,81,169,48,17,07,215,15*7D
$GPGSV,3,3,12,19,17,226,36,22,02,105,,26,06,044,,30,01,180,*78
$GLGSV,1,1,00*65
$GNGLL,5154.79774,N,00234.92539,W,105604.00,A,A*6D
$GNZDA,105604.00,13,11,2020,00,00*7C
$GNRMC,105605.00,A,5154.79770,N,00234.92535,W,0.019,,131120,,,A*75
$GNVTG,,T,,M,0.019,N,0.036,K,A*30
$GNGGA,105605.00,5154.79770,N,00234.92535,W,1,08,1.16,51.9,M,48.6,M,,*68
$GNGSA,A,3,06,09,02,19,03,04,07,17,,,,,1.90,1.16,1.50*15
$GNGSA,A,3,,,,,,,,,,,,,1.90,1.16,1.50*16
$GPGSV,3,1,12,02,37,305,15,03,21,099,31,04,51,063,31,05,02,283,*77
$GPGSV,3,2,12,06,68,238,49,07,22,161,27,09,81,169,48,17,07,215,14*73
$GPGSV,3,3,12,19,17,226,36,22,02,105,,26,06,044,,30,01,180,*78
$GLGSV,1,1,00*65
$GNGLL,5154.79770,N,00234.92535,W,105605.00,A,A*64
$GNZDA,105605.00,13,11,2020,00,00*7D
$GNRMC,105606.00,A,5154.79765,N,00234.92532,W,0.020,,131120,,,A*7F
$GNVTG,,T,,M,0.020,N,0.037,K,A*3B
$GNGGA,105606.00,5154.79765,N,00234.92532,W,1,08,1.16,52.0,M,48.6,M,,*62
$GNGSA,A,3,06,09,02,19,03,04,07,17,,,,,1.90,1.16,1.50*15
$GNGSA,A,3,,,,,,,,,,,,,1.90,1.16,1.50*16
$GPGSV,3,1,12,02,37,305,15,03,21,099,31,04,51,063,30,05,02,283,*76
$GPGSV,3,2,12,06,68,238,49,07,22,161,28,09,81,169,48,17,07,215,15*7D
$GPGSV,3,3,12,19,17,226,36,22,02,105,,26,06,044,,30,01,180,*78
$GLGSV,1,1,00*65
$GNGLL,5154.79765,N,00234.92532,W,105606.00,A,A*64
$GNZDA,105606.00,13,11,2020,00,00*7E
$GNRMC,105607.00,A,5154.79762,N,00234.92527,W,0.020,,131120,,,A*7D
$GNVTG,,T,,M,0.020,N,0.037,K,A*3B
$GNGGA,105607.00,5154.79762,N,00234.92527,W,1,08,1.16,52.0,M,48.6,M,,*60
$GNGSA,A,3,06,09,02,19,03,04,07,17,,,,,1.90,1.16,1.50*15
$GNGSA,A,3,,,,,,,,,,,,,1.90,1.16,1.50*16
$GPGSV,3,1,12,02,37,305,15,03,21,099,31,04,51,063,30,05,02,283,*76
$GPGSV,3,2,12,06,68,237,49,07,22,161,27,09,81,169,48,17,07,215,15*7D
$GPGSV,3,3,12,19,17,226,36,22,02,105,,26,06,044,,30,01,180,*78
$GLGSV,1,1,00*65
$GNGLL,5154.79762,N,00234.92527,W,105607.00,A,A*66
$GNZDA,105607.00,13,11,2020,00,00*7F
$GNRMC,105608.00,A,5154.79752,N,00234.92521,W,0.022,,131120,,,A*75
$GNVTG,,T,,M,0.022,N,0.040,K,A*39
$GNGGA,105608.00,5154.79752,N,00234.92521,W,1,08,1.16,52.1,M,48.6,M,,*6B
$GNGSA,A,3,06,09,02,19,03,04,07,17,,,,,1.90,1.16,1.50*15
$GNGSA,A,3,,,,,,,,,,,,,1.90,1.16,1.50*16
$GPGSV,3,1,12,02,37,305,14,03,21,099,31,04,51,063,30,05,02,283,*77
$GPGSV,3,2,12,06,68,237,49,07,22,161,28,09,81,169,48,17,07,215,14*73
$GPGSV,3,3,12,19,17,226,36,22,02,105,,26,06,044,,30,01,180,*78
$GLGSV,1,1,00*65
$GNGLL,5154.79752,N,00234.92521,W,105608.00,A,A*6C
$GNZDA,105608.00,13,11,2020,00,00*70
$GNRMC,105609.00,A,5154.79748,N,00234.92516,W,0.021,,131120,,,A*78
$GNVTG,,T,,M,0.021,N,0.039,K,A*34
$GNGGA,105609.00,5154.79748,N,00234.92516,W,1,08,1.16,52.1,M,48.6,M,,*65
$GNGSA,A,3,06,09,02,19,03,04,07,17,,,,,1.90,1.16,1.50*15
$GNGSA,A,3,,,,,,,,,,,,,1.90,1.16,1.50*16
$GPGSV,3,1,12,02,37,305,13,03,21,099,31,04,51,063,30,05,02,283,*70
$GPGSV,3,2,12,06,68,237,49,07,22,161,28,09,81,169,48,17,07,215,14*73
$GPGSV,3,3,12,19,17,226,36,22,02,105,,26,06,044,,30,01,180,*78
$GLGSV,1,1,00*65
$GNGLL,5154.79748,N,00234.92516,W,105609.00,A,A*62
$GNZDA,105609.00,13,11,2020,00,00*71
$GNRMC,105610.00,A,5154.79739,N,00234.92508,W,0.024,,131120,,,A*7C
$GNVTG,,T,,M,0.024,N,0.044,K,A*3B
$GNGGA,105610.00,5154.79739,N,00234.92508,W,1,08,1.16,52.1,M,48.6,M,,*64
$GNGSA,A,3,06,09,02,19,03,04,07,17,,,,,1.90,1.16,1.50*15
$GNGSA,A,3,,,,,,,,,,,,,1.90,1.16,1.50*16
$GPGSV,3,1,12,02,37,305,15,03,21,099,31,04,51,063,30,05,02,283,*76
$GPGSV,3,2,12,06,68,237,49,07,22,161,28,09,82,168,48,17,07,215,15*70
$GPGSV,3,3,12,19,17,226,36,22,02,105,,26,06,044,,30,01,180,*78
$GLGSV,1,1,00*65
$GNGLL,5154.79739,N,00234.92508,W,105610.00,A,A*63
$GNZDA,105610.00,13,11,2020,00,00*79
$GNRMC,105611.00,A,5154.79731,N,00234.92501,W,0.024,,131120,,,A*7C
$GNVTG,,T,,M,0.024,N,0.044,K,A*3B
$GNGGA,105611.00,5154.79731,N,00234.92501,W,1,08,1.16,52.1,M,48.6,M,,*64
$GNGSA,A,3,06,09,02,19,03,04,07,17,,,,,1.90,1.16,1.50*15
$GNGSA,A,3,,,,,,,,,,,,,1.90,1.16,1.50*16
$GPGSV,3,1,12,02,37,305,16,03,21,099,31,04,51,063,30,05,02,283,*75
$GPGSV,3,2,12,06,68,237,49,07,22,161,28,09,82,168,48,17,07,215,15*70
$GPGSV,3,3,12,19,17,226,36,22,02,105,,26,06,044,,30,01,180,*78
$GLGSV,1,1,00*65
$GNGLL,5154.79731,N,00234.92501,W,105611.00,A,A*63
$GNZDA,105611.00,13,11,2020,00,00*78
$GNRMC,105612.00,A,5154.79728,N,00234.92498,W,0.024,,131120,,,A*76
$GNVTG,,T,,M,0.024,N,0.044,K,A*3B
$GNGGA,105612.00,5154.79728,N,00234.92498,W,1,08,1.16,52.2,M,48.6,M,,*6D
$GNGSA,A,3,06,09,02,19,03,04,07,17,,,,,1.90,1.16,1.50*15
$GNGSA,A,3,,,,,,,,,,,,,1.90,1.16,1.50*16
$GPGSV,3,1,12,02,37,305,16,03,21,099,31,04,51,063,31,05,02,283,*74
$GPGSV,3,2,12,06,68,237,49,07,22,161,27,09,82,168,48,17,07,215,15*7F
$GPGSV,3,3,12,19,17,226,36,22,02,105,,26,06,044,,30,01,180,*78
$GLGSV,1,1,00*65
$GNGLL,5154.79728,N,00234.92498,W,105612.00,A,A*69
$GNZDA,105612.00,13,11,2020,00,00*7B
$GNRMC,105613.00,A,5154.79721,N,00234.92496,W,0.025,,131120,,,A*71
$GNVTG,,T,,M,0.025,N,0.045,K,A*3B
$GNGGA,105613.00,5154.79721,N,00234.92496,W,1,08,1.16,52.2,M,48.6,M,,*6B
$GNGSA,A,3,06,09,02,19,03,04,07,17,,,,,1.90,1.16,1.50*15
$GNGSA,A,3,,,,,,,,,,,,,1.90,1.16,1.50*16
$GPGSV,3,1,12,02,37,305,16,03,21,099,31,04,51,063,30,05,02,283,*75
$GPGSV,3,2,12,06,68,237,49,07,22,161,27,09,82,168,48,17,07,215,14*7E
$GPGSV,3,3,12,19,17,226,36,22,02,105,,26,06,044,,30,01,180,*78
$GLGSV,1,1,00*65
$GNGLL,5154.79721,N,00234.92496,W,105613.00,A,A*6F
$GNZDA,105613.00,13,11,2020,00,00*7A
$GNRMC,105614.00,A,5154.79713,N,00234.92491,W,0.027,,131120,,,A*72
$GNVTG,,T,,M,0.027,N,0.051,K,A*3C
$GNGGA,105614.00,5154.79713,N,00234.92491,W,1,08,1.16,52.3,M,48.6,M,,*6B
$GNGSA,A,3,06,09,02,19,03,04,07,17,,,,,1.90,1.16,1.50*15
$GNGSA,A,3,,,,,,,,,,,,,1.90,1.16,1.50*16
$GPGSV,3,1,12,02,37,305,16,03,21,099,31,04,51,063,30,05,02,283,*75
$GPGSV,3,2,12,06,68,237,49,07,22,161,28,09,82,168,48,17,07,215,14*71
$GPGSV,3,3,12,19,17,226,36,22,02,105,,26,06,044,,30,01,180,*78
$GLGSV,1,1,00*65
$GNGLL,5154.79713,N,00234.92491,W,105614.00,A,A*6E
$GNZDA,105614.00,13,11,2020,00,00*7D
$GNRMC,105615.00,A,5154.79705,N,00234.92488,W,0.028,,131120,,,A*73
$GNVTG,,T,,M,0.028,N,0.052,K,A*30
$GNGGA,105615.00,5154.79705,N,00234.92488,W,1,08,1.16,52.4,M,48.6,M,,*62
$GNGSA,A,3,06,09,02,19,03,04,07,17,,,,,1.90,1.16,1.50*15
$GNGSA,A,3,,,,,,,,,,,,,1.90,1.16,1.50*16
$GPGSV,3,1,12,02,37,305,16,03,21,099,31,04,51,063,30,05,02,283,*75
$GPGSV,3,2,12,06,68,237,49,07,22,161,28,09,82,168,49,17,07,215,14*70
$GPGSV,3,3,12,19,17,226,36,22,02,105,,26,06,044,,30,01,180,*78
$GLGSV,1,1,00*65
$GNGLL,5154.79705,N,00234.92488,W,105615.00,A,A*60
$GNZDA,105615.00,13,11,2020,00,00*7C
$GNRMC,105616.00,A,5154.79699,N,00234.92485,W,0.029,,131120,,,A*78
$GNVTG,,T,,M,0.029,N,0.053,K,A*30
$GNGGA,105616.00,5154.79699,N,00234.92485,W,1,08,1.16,52.4,M,48.6,M,,*68
$GNGSA,A,3,06,09,02,19,03,04,07,17,,,,,1.90,1.16,1.50*15
$GNGSA,A,3,,,,,,,,,,,,,1.90,1.16,1.50*16
$GPGSV,3,1,12,02,37,305,16,03,21,099,31,04,51,063,30,05,02,283,*75
$GPGSV,3,2,12,06,68,237,49,07,22,161,28,09,82,168,49,17,07,215,13*77
$GPGSV,3,3,12,19,17,226,36,22,02,105,,26,06,044,,30,01,180,*78
$GLGSV,1,1,00*65
$GNGLL,5154.79699,N,00234.92485,W,105616.00,A,A*6A
$GNZDA,105616.00,13,11,2020,00,00*7F
$GNRMC,105617.00,A,5154.79692,N,00234.92482,W,0.030,,131120,,,A*7D
$GNVTG,,T,,M,0.030,N,0.055,K,A*3E
$GNGGA,105617.00,5154.79692,N,00234.92482,W,1,08,1.16,52.5,M,48.6,M,,*64
$GNGSA,A,3,06,09,02,19,03,04,07,17,,,,,1.90,1.16,1.50*15
$GNGSA,A,3,,,,,,,,,,,,,1.90,1.16,1.50*16
$GPGSV,3,1,12,02,37,305,17,03,21,099,31,04,51,063,30,05,02,283,*74
$GPGSV,3,2,12,06,68,237,49,07,22,161,28,09,82,168,49,17,07,215,15*71
$GPGSV,3,3,12,19,17,226,36,22,02,105,,26,06,044,,30,01,180,*78
$GLGSV,1,1,00*65
$GNGLL,5154.79692,N,00234.92482,W,105617.00,A,A*67
$GNZDA,105617.00,13,11,2020,00,00*7E
$GNRMC,105618.00,A,5154.79688,N,00234.92479,W,0.029,,131120,,,A*75
$GNVTG,,T,,M,0.029,N,0.054,K,A*37
$GNGGA,105618.00,5154.79688,N,00234.92479,W,1,08,1.16,52.5,M,48.6,M,,*64
$GNGSA,A,3,06,09,02,19,03,04,07,17,,,,,1.90,1.16,1.50*15
$GNGSA,A,3,,,,,,,,,,,,,1.90,1.16,1.50*16
$GPGSV,3,1,12,02,37,305,17,03,21,099,31,04,51,063,30,05,02,283,*74
$GPGSV,3,2,12,06,68,237,49,07,22,161,28,09,82,168,49,17,07,215,15*71
$GPGSV,3,3,12,19,17,226,36,22,02,105,,26,06,044,,30,01,180,*78
$GLGSV,1,1,00*65
$GNGLL,5154.79688,N,00234.92479,W,105618.00,A,A*67
$GNZDA,105618.00,13,11,2020,00,00*71
$GNRMC,105619.00,A,5154.79689,N,00234.92478,W,0.026,,131120,,,A*7B
$GNVTG,,T,,M,0.026,N,0.049,K,A*34
$GNGGA,105619.00,5154.79689,N,00234.92478,W,1,08,1.16,52.5,M,48.6,M,,*65
$GNGSA,A,3,06,09,02,19,03,04,07,17,,,,,1.90,1.16,1.50*15
$GNGSA,A,3,,,,,,,,,,,,,1.90,1.16,1.50*16
$GPGSV,3,1,12,02,37,305,16,03,21,099,31,04,51,063,30,05,02,283,*75
$GPGSV,3,2,12,06,68,237,49,07,22,161,28,09,82,168,49,17,07,215,15*71
$GPGSV,3,3,12,19,17,226,36,22,02,105,,26,06,044,,30,01,180,*78
$GLGSV,1,1,00*65
$GNGLL,5154.79689,N,00234.92478,W,105619.00,A,A*66
$GNZDA,105619.00,13,11,2020,00,00*70
$GNRMC,105620.00,A,5154.79691,N,00234.92478,W,0.025,,131120,,,A*7B
$GNVTG,,T,,M,0.025,N,0.046,K,A*38
$GNGGA,105620.00,5154.79691,N,00234.92478,W,1,08,1.16,52.4,M,48.6,M,,*67
$GNGSA,A,3,06,09,02,19,03,04,07,17,,,,,1.90,1.16,1.50*15
$GNGSA,A,3,,,,,,,,,,,,,1.90,1.16,1.50*16
$GPGSV,3,1,12,02,37,305,16,03,21,099,31,04,51,063,30,05,02,283,*75
$GPGSV,3,2,12,06,68,237,49,07,22,161,27,09,82,168,49,17,07,215,15*7E
$GPGSV,3,3,12,19,17,226,36,22,02,105,,26,06,044,,30,01,180,*78
$GLGSV,1,1,00*65
$GNGLL,5154.79691,N,00234.92478,W,105620.00,A,A*65
$GNZDA,105620.00,13,11,2020,00,00*7A
$GNRMC,105621.00,A,5154.79694,N,00234.92478,W,0.023,,131120,,,A*79
$GNVTG,,T,,M,0.023,N,0.042,K,A*3A
$GNGGA,105621.00,5154.79694,N,00234.92478,W,1,08,1.16,52.4,M,48.6,M,,*63
$GNGSA,A,3,06,09,02,19,03,04,07,17,,,,,1.90,1.16,1.50*15
$GNGSA,A,3,,,,,,,,,,,,,1.90,1.16,1.50*16
$GPGSV,3,1,12,02,37,305,16,03,21,099,31,04,51,063,30,05,02,283,*75
$GPGSV,3,2,12,06,68,237,49,07,22,161,28,09,82,168,49,17,07,215,15*71
$GPGSV,3,3,12,19,17,226,36,22,02,105,,26,06,044,,30,01,180,*78
$GLGSV,1,1,00*65
$GNGLL,5154.79694,N,00234.92478,W,105621.00,A,A*61
$GNZDA,105621.00,13,11,2020,00,00*7B
$GNRMC,105622.00,A,5154.79693,N,00234.92476,W,0.022,,131120,,,A*72
$GNVTG,,T,,M,0.022,N,0.041,K,A*38
$GNGGA,105622.00,5154.79693,N,00234.92476,W,1,08,1.16,52.4,M,48.6,M,,*69
$GNGSA,A,3,06,09,02,19,03,04,07,17,,,,,1.90,1.16,1.50*15
$GNGSA,A,3,,,,,,,,,,,,,1.90,1.16,1.50*16
$GPGSV,3,1,12,02,37,305,16,03,21,099,31,04,51,063,30,05,02,283,*75
$GPGSV,3,2,12,06,68,237,49,07,22,161,28,09,82,168,49,17,07,215,15*71
$GPGSV,3,3,12,19,17,226,36,22,02,105,,26,06,044,,30,01,180,*78
$GLGSV,1,1,00*65
$GNGLL,5154.79693,N,00234.92476,W,105622.00,A,A*6B
$GNZDA,105622.00,13,11,2020,00,00*78
$GNRMC,105623.00,A,5154.79692,N,00234.92475,W,0.022,,131120,,,A*71
$GNVTG,,T,,M,0.022,N,0.041,K,A*38
$GNGGA,105623.00,5154.79692,N,00234.92475,W,1,08,1.16,52.4,M,48.6,M,,*6A
$GNGSA,A,3,06,09,02,19,03,04,07,17,,,,,1.90,1.16,1.50*15
$GNGSA,A,3,,,,,,,,,,,,,1.90,1.16,1.50*16
$GPGSV,3,1,12,02,37,305,16,03,21,099,31,04,51,063,30,05,02,283,*75
$GPGSV,3,2,12,06,68,237,49,07,22,161,28,09,82,168,49,17,07,215,15*71
$GPGSV,3,3,12,19,17,226,36,22,02,105,,26,06,044,,30,01,180,*78
$GLGSV,1,1,00*65
$GNGLL,5154.79692,N,00234.92475,W,105623.00,A,A*68
$GNZDA,105623.00,13,11,2020,00,00*79
$GNRMC,105624.00,A,5154.79693,N,00234.92476,W,0.021,,131120,,,A*77
$GNVTG,,T,,M,0.021,N,0.039,K,A*34
$GNGGA,105624.00,5154.79693,N,00234.92476,W,1,08,1.16,52.3,M,48.6,M,,*68
$GNGSA,A,3,06,09,02,19,03,04,07,17,,,,,1.90,1.16,1.50*15
$GNGSA,A,3,,,,,,,,,,,,,1.90,1.16,1.50*16
$GPGSV,3,1,12,02,37,305,17,03,21,099,31,04,51,063,30,05,02,283,*74
$GPGSV,3,2,12,06,68,237,49,07,22,161,28,09,82,168,49,17,07,215,15*71
$GPGSV,3,3,12,19,17,226,36,22,02,105,,26,06,044,,30,01,180,*78
$GLGSV,1,1,00*65
$GNGLL,5154.79693,N,00234.92476,W,105624.00,A,A*6D
$GNZDA,105624.00,13,11,2020,00,00*7E
$GNRMC,105625.00,A,5154.79695,N,00234.92477,W,0.019,,131120,,,A*7A
$GNVTG,,T,,M,0.019,N,0.036,K,A*30
$GNGGA,105625.00,5154.79695,N,00234.92477,W,1,08,1.16,52.3,M,48.6,M,,*6E
$GNGSA,A,3,06,09,02,19,03,04,07,17,,,,,1.90,1.16,1.50*15
$GNGSA,A,3,,,,,,,,,,,,,1.90,1.16,1.50*16
$GPGSV,3,1,12,02,37,305,17,03,21,099,31,04,51,063,30,05,02,283,*74
$GPGSV,3,2,12,06,68,237,49,07,22,161,28,09,82,168,49,17,07,215,14*70
$GPGSV,3,3,12,19,17,226,36,22,02,105,,26,06,044,,30,01,180,*78
$GLGSV,1,1,00*65
$GNGLL,5154.79695,N,00234.92477,W,105625.00,A,A*6B
$GNZDA,105625.00,13,11,2020,00,00*7F
$GNRMC,105626.00,A,5154.79694,N,00234.92476,W,0.019,,131120,,,A*79
$GNVTG,,T,,M,0.019,N,0.036,K,A*30
$GNGGA,105626.00,5154.79694,N,00234.92476,W,1,08,1.16,52.3,M,48.6,M,,*6D
$GNGSA,A,3,06,09,02,19,03,04,07,17,,,,,1.90,1.16,1.50*15
$GNGSA,A,3,,,,,,,,,,,,,1.90,1.16,1.50*16
$GPGSV,3,1,12,02,37,305,18,03,21,099,31,04,51,063,30,05,02,283,*7B
$GPGSV,3,2,12,06,68,237,49,07,22,161,28,09,82,168,49,17,07,215,16*72
$GPGSV,3,3,12,19,17,226,36,22,02,105,,26,06,044,,30,01,180,*78
$GLGSV,1,1,00*65
$GNGLL,5154.79694,N,00234.92476,W,105626.00,A,A*68
$GNZDA,105626.00,13,11,2020,00,00*7C
$GNRMC,105627.00,A,5154.79696,N,00234.92477,W,0.018,,131120,,,A*7A
$GNVTG,,T,,M,0.018,N,0.033,K,A*34
$GNGGA,105627.00,5154.79696,N,00234.92477,W,1,08,1.16,52.3,M,48.6,M,,*6F
$GNGSA,A,3,06,09,02,19,03,04,07,17,,,,,1.90,1.16,1.50*15
$GNGSA,A,3,,,,,,,,,,,,,1.90,1.16,1.50*16
$GPGSV,3,1,12,02,37,305,18,03,21,099,31,04,51,063,30,05,02,283,*7B
$GPGSV,3,2,12,06,68,237,49,07,22,161,28,09,82,168,49,17,07,215,16*72
$GPGSV,3,3,12,19,17,226,36,22,02,105,,26,06,044,,30,01,180,*78
$GLGSV,1,1,00*65
$GNGLL,5154.79696,N,00234.92477,W,105627.00,A,A*6A
$GNZDA,105627.00,13,11,2020,00,00*7D
$GNRMC,105628.00,A,5154.79699,N,00234.92479,W,0.016,,131120,,,A*7A
$GNVTG,,T,,M,0.016,N,0.029,K,A*31
$GNGGA,105628.00,5154.79699,N,00234.92479,W,1,08,1.16,52.2,M,48.6,M,,*60
$GNGSA,A,3,06,09,02,19,03,04,07,17,,,,,1.90,1.16,1.50*15
$GNGSA,A,3,,,,,,,,,,,,,1.90,1.16,1.50*16
$GPGSV,3,1,12,02,37,305,17,03,21,099,31,04,51,063,31,05,02,283,*75
$GPGSV,3,2,12,06,68,237,49,07,22,161,28,09,82,168,49,17,07,215,15*71
$GPGSV,3,3,12,19,17,226,36,22,02,105,,26,06,044,,30,01,180,*78
$GLGSV,1,1,00*65
$GNGLL,5154.79699,N,00234.92479,W,105628.00,A,A*64
$GNZDA,105628.00,13,11,2020,00,00*72
$GNRMC,105629.00,A,5154.79699,N,00234.92479,W,0.016,,131120,,,A*7B
$GNVTG,,T,,M,0.016,N,0.030,K,A*39
$GNGGA,105629.00,5154.79699,N,00234.92479,W,1,08,1.16,52.2,M,48.6,M,,*61
$GNGSA,A,3,06,09,02,19,03,04,07,17,,,,,1.90,1.16,1.50*15
$GNGSA,A,3,,,,,,,,,,,,,1.90,1.16,1.50*16
$GPGSV,3,1,12,02,37,305,18,03,21,099,31,04,51,063,31,05,02,283,*7A
$GPGSV,3,2,12,06,68,237,49,07,22,161,28,09,82,168,49,17,07,215,13*77
$GPGSV,3,3,12,19,17,226,36,22,02,105,,26,06,044,,30,01,180,*78
$GLGSV,1,1,00*65
$GNGLL,5154.79699,N,00234.92479,W,105629.00,A,A*65
$GNZDA,105629.00,13,11,2020,00,00*73
$GNRMC,105630.00,A,5154.79699,N,00234.92479,W,0.016,,131120,,,A*73
$GNVTG,,T,,M,0.016,N,0.029,K,A*31
$GNGGA,105630.00,5154.79699,N,00234.92479,W,1,08,1.16,52.2,M,48.6,M,,*69
$GNGSA,A,3,06,09,02,19,03,04,07,17,,,,,1.90,1.16,1.50*15
$GNGSA,A,3,,,,,,,,,,,,,1.90,1.16,1.50*16
$GPGSV,3,1,12,02,37,305,18,03,21,099,30,04,51,063,31,05,02,283,*7B
$GPGSV,3,2,12,06,68,237,49,07,22,161,28,09,82,168,49,17,07,215,15*71
$GPGSV,3,3,12,19,17,226,36,22,02,105,,26,06,044,,30,01,180,*78
$GLGSV,1,1,00*65
$GNGLL,5154.79699,N,00234.92479,W,105630.00,A,A*6D
$GNZDA,105630.00,13,11,2020,00,00*7B
$GNRMC,105631.00,A,5154.79697,N,00234.92480,W,0.016,,131120,,,A*7A
$GNVTG,,T,,M,0.016,N,0.030,K,A*39
$GNGGA,105631.00,5154.79697,N,00234.92480,W,1,08,1.16,52.2,M,48.6,M,,*60
$GNGSA,A,3,06,09,02,19,03,04,07,17,,,,,1.90,1.16,1.50*15
$GNGSA,A,3,,,,,,,,,,,,,1.90,1.16,1.50*16
$GPGSV,3,1,12,02,37,305,19,03,21,099,30,04,51,063,31,05,02,283,*7A
$GPGSV,3,2,12,06,68,237,49,07,22,161,28,09,82,168,49,17,07,215,15*71
$GPGSV,3,3,12,19,17,226,35,22,02,105,,26,06,044,,30,02,180,*78
$GLGSV,1,1,00*65
$GNGLL,5154.79697,N,00234.92480,W,105631.00,A,A*64
$GNZDA,105631.00,13,11,2020,00,00*7A
$GNRMC,105632.00,A,5154.79699,N,00234.92482,W,0.014,,131120,,,A*77
$GNVTG,,T,,M,0.014,N,0.026,K,A*3C
$GNGGA,105632.00,5154.79699,N,00234.92482,W,1,08,1.16,52.1,M,48.6,M,,*6C
$GNGSA,A,3,06,09,02,19,03,04,07,17,,,,,1.90,1.16,1.50*15
$GNGSA,A,3,,,,,,,,,,,,,1.90,1.16,1.50*16
$GPGSV,3,1,12,02,37,305,19,03,21,099,31,04,51,063,31,05,02,283,*7B
$GPGSV,3,2,12,06,68,237,49,07,22,161,28,09,82,168,49,17,07,215,16*72
$GPGSV,3,3,12,19,17,226,35,22,02,105,,26,06,044,,30,02,180,*78
$GLGSV,1,1,00*65
$GNGLL,5154.79699,N,00234.92482,W,105632.00,A,A*6B
$GNZDA,105632.00,13,11,2020,00,00*79
$GNRMC,105633.00,A,5154.79702,N,00234.92484,W,0.012,,131120,,,A*75
$GNVTG,,T,,M,0.012,N,0.022,K,A*3E
$GNGGA,105633.00,5154.79702,N,00234.92484,W,1,08,1.16,52.1,M,48.6,M,,*68
$GNGSA,A,3,06,09,02,19,03,04,07,17,,,,,1.90,1.16,1.50*15
$GNGSA,A,3,,,,,,,,,,,,,1.90,1.16,1.50*16
$GPGSV,3,1,12,02,37,305,19,03,21,099,31,04,51,063,31,05,02,283,*7B
$GPGSV,3,2,12,06,68,237,49,07,22,161,28,09,82,168,49,17,07,215,16*72
$GPGSV,3,3,12,19,17,226,35,22,02,105,,26,06,044,,30,02,180,*78
$GLGSV,1,1,00*65
$GNGLL,5154.79702,N,00234.92484,W,105633.00,A,A*6F
$GNZDA,105633.00,13,11,2020,00,00*78
$GNRMC,105634.00,A,5154.79703,N,00234.92486,W,0.011,,131120,,,A*72
$GNVTG,,T,,M,0.011,N,0.020,K,A*3F
$GNGGA,105634.00,5154.79703,N,00234.92486,W,1,08,1.16,52.1,M,48.6,M,,*6C
$GNGSA,A,3,06,09,02,19,03,04,07,17,,,,,1.90,1.16,1.50*15
$GNGSA,A,3,,,,,,,,,,,,,1.90,1.16,1.50*16
$GPGSV,3,1,12,02,37,305,19,03,21,099,31,04,51,063,31,05,02,283,*7B
$GPGSV,3,2,12,06,68,237,49,07,22,161,28,09,82,168,49,17,07,215,17*73
$GPGSV,3,3,12,19,17,226,36,22,02,105,,26,06,044,,30,02,180,*7B
$GLGSV,1,1,00*65
$GNGLL,5154.79703,N,00234.92486,W,105634.00,A,A*6B
$GNZDA,105634.00,13,11,2020,00,00*7F
$GNRMC,105635.00,A,5154.79710,N,00234.92488,W,0.009,,131120,,,A*76
$GNVTG,,T,,M,0.009,N,0.017,K,A*32
$GNGGA,105635.00,5154.79710,N,00234.92488,W,1,07,1.90,52.0,M,48.6,M,,*61
$GNGSA,A,3,06,09,19,03,04,07,17,,,,,,2.62,1.90,1.81*1B
$GNGSA,A,3,,,,,,,,,,,,,2.62,1.90,1.81*1A
$GPGSV,3,1,12,02,37,305,,03,21,099,31,04,51,063,31,05,02,283,*73
$GPGSV,3,2,12,06,68,237,49,07,22,161,28,09,82,168,49,17,07,215,17*73
$GPGSV,3,3,12,19,17,226,35,22,02,105,,26,06,044,,30,02,180,*78
$GLGSV,1,1,00*65
$GNGLL,5154.79710,N,00234.92488,W,105635.00,A,A*66
$GNZDA,105635.00,13,11,2020,00,00*7E
$GNRMC,105636.00,A,5154.79717,N,00234.92492,W,0.007,,131120,,,A*77
$GNVTG,,T,,M,0.007,N,0.014,K,A*3F
$GNGGA,105636.00,5154.79717,N,00234.92492,W,1,07,1.90,51.8,M,48.6,M,,*65
$GNGSA,A,3,06,09,19,03,04,07,17,,,,,,2.62,1.90,1.80*1A
$GNGSA,A,3,,,,,,,,,,,,,2.62,1.90,1.80*1B
$GPGSV,3,1,12,02,37,305,,03,21,099,31,04,51,063,31,05,02,283,*73
$GPGSV,3,2,12,06,68,237,49,07,22,161,28,09,82,168,49,17,07,215,18*7C
$GPGSV,3,3,12,19,17,226,35,22,02,105,,26,06,044,,30,02,180,*78
$GLGSV,1,1,00*65
$GNGLL,5154.79717,N,00234.92492,W,105636.00,A,A*69
$GNZDA,105636.00,13,11,2020,00,00*7D
$GNRMC,105637.00,A,5154.79723,N,00234.92495,W,0.006,,131120,,,A*77
$GNVTG,,T,,M,0.006,N,0.011,K,A*3B
$GNGGA,105637.00,5154.79723,N,00234.92495,W,1,07,1.90,51.7,M,48.6,M,,*6B
$GNGSA,A,3,06,09,19,03,04,07,17,,,,,,2.62,1.90,1.80*1A
$GNGSA,A,3,,,,,,,,,,,,,2.62,1.90,1.80*1B
$GPGSV,3,1,12,02,37,305,,03,21,099,31,04,51,063,31,05,02,283,*73
$GPGSV,3,2,12,06,68,237,49,07,22,161,28,09,82,168,49,17,07,215,18*7C
$GPGSV,3,3,12,19,17,226,35,22,02,105,,26,06,044,,30,02,180,*78
$GLGSV,1,1,00*65
$GNGLL,5154.79723,N,00234.92495,W,105637.00,A,A*68
$GNZDA,105637.00,13,11,2020,00,00*7C
$GNRMC,105638.00,A,5154.79729,N,00234.92499,W,0.005,,131120,,,A*7D
$GNVTG,,T,,M,0.005,N,0.010,K,A*39
$GNGGA,105638.00,5154.79729,N,00234.92499,W,1,07,1.90,51.7,M,48.6,M,,*62
$GNGSA,A,3,06,09,19,03,04,07,17,,,,,,2.62,1.90,1.80*1A
$GNGSA,A,3,,,,,,,,,,,,,2.62,1.90,1.80*1B
$GPGSV,3,1,12,02,37,305,,03,21,099,31,04,51,063,31,05,02,283,*73
$GPGSV,3,2,12,06,68,237,49,07,22,161,28,09,82,168,49,17,07,215,19*7D
$GPGSV,3,3,12,19,17,226,36,22,02,105,,26,06,044,,30,02,180,*7B
$GLGSV,1,1,00*65
$GNGLL,5154.79729,N,00234.92499,W,105638.00,A,A*61
$GNZDA,105638.00,13,11,2020,00,00*73
$GNRMC,105639.00,A,5154.79730,N,00234.92501,W,0.005,,131120,,,A*74
$GNVTG,,T,,M,0.005,N,0.009,K,A*31
$GNGGA,105639.00,5154.79730,N,00234.92501,W,1,07,1.90,51.6,M,48.6,M,,*6A
$GNGSA,A,3,06,09,19,03,04,07,17,,,,,,2.62,1.90,1.80*1A
$GNGSA,A,3,,,,,,,,,,,,,2.62,1.90,1.80*1B
$GPGSV,3,1,12,02,37,305,,03,21,099,31,04,51,063,31,05,02,283,*73
$GPGSV,3,2,12,06,68,237,49,07,22,161,28,09,82,168,49,17,07,215,19*7D
$GPGSV,3,3,12,19,17,226,35,22,02,105,,26,06,044,,30,02,180,*78
$GLGSV,1,1,00*65
$GNGLL,5154.79730,N,00234.92501,W,105639.00,A,A*68
$GNZDA,105639.00,13,11,2020,00,00*72
$GNRMC,105640.00,A,5154.79738,N,00234.92505,W,0.006,,131120,,,A*75
$GNVTG,,T,,M,0.006,N,0.010,K,A*3A
$GNGGA,105640.00,5154.79738,N,00234.92505,W,1,07,1.89,51.5,M,48.6,M,,*63
$GNGSA,A,3,06,09,19,03,04,07,17,,,,,,2.62,1.89,1.80*12
$GNGSA,A,3,,,,,,,,,,,,,2.62,1.89,1.80*13
$GPGSV,3,1,12,02,37,305,,03,21,099,31,04,51,063,31,05,02,283,*73
$GPGSV,3,2,12,06,68,237,49,07,22,161,28,09,82,168,49,17,07,215,19*7D
$GPGSV,3,3,12,19,17,226,35,22,02,105,,26,06,044,,30,02,180,*78
$GLGSV,1,1,00*65
$GNGLL,5154.79738,N,00234.92505,W,105640.00,A,A*6A
$GNZDA,105640.00,13,11,2020,00,00*7C
$GNRMC,105641.00,A,5154.79745,N,00234.92508,W,0.007,,131120,,,A*72
$GNVTG,,T,,M,0.007,N,0.012,K,A*39
$GNGGA,105641.00,5154.79745,N,00234.92508,W,1,07,1.89,51.4,M,48.6,M,,*64
$GNGSA,A,3,06,09,19,03,04,07,17,,,,,,2.62,1.89,1.80*12
$GNGSA,A,3,,,,,,,,,,,,,2.62,1.89,1.80*13
$GPGSV,3,1,12,02,37,305,,03,21,099,31,04,51,063,31,05,02,283,*73
$GPGSV,3,2,12,06,68,237,49,07,22,161,28,09,82,168,49,17,07,215,19*7D
$GPGSV,3,3,12,19,17,226,35,22,02,105,,26,06,044,,30,02,180,*78
$GLGSV,1,1,00*65
$GNGLL,5154.79745,N,00234.92508,W,105641.00,A,A*6C
$GNZDA,105641.00,13,11,2020,00,00*7D
$GNRMC,105642.00,A,5154.79752,N,00234.92512,W,0.008,,131120,,,A*73
$GNVTG,,T,,M,0.008,N,0.015,K,A*31
$GNGGA,105642.00,5154.79752,N,00234.92512,W,1,07,1.89,51.3,M,48.6,M,,*6D
$GNGSA,A,3,06,09,19,03,04,07,17,,,,,,2.61,1.89,1.80*11
$GNGSA,A,3,,,,,,,,,,,,,2.61,1.89,1.80*10
$GPGSV,3,1,12,02,37,305,,03,21,099,30,04,51,063,31,05,02,283,*72
$GPGSV,3,2,12,06,68,237,49,07,22,161,28,09,82,168,49,17,07,215,18*7C
$GPGSV,3,3,12,19,17,226,35,22,02,105,,26,06,044,,30,02,180,*78
$GLGSV,1,1,00*65
$GNGLL,5154.79752,N,00234.92512,W,105642.00,A,A*62
$GNZDA,105642.00,13,11,2020,00,00*7E
$GNRMC,105643.00,A,5154.79756,N,00234.92515,W,0.009,,131120,,,A*70
$GNVTG,,T,,M,0.009,N,0.016,K,A*33
$GNGGA,105643.00,5154.79756,N,00234.92515,W,1,07,1.89,51.3,M,48.6,M,,*6F
$GNGSA,A,3,06,09,19,03,04,07,17,,,,,,2.61,1.89,1.80*11
$GNGSA,A,3,,,,,,,,,,,,,2.61,1.89,1.80*10
$GPGSV,3,1,12,02,37,305,,03,21,099,31,04,51,063,31,05,02,283,*73
$GPGSV,3,2,12,06,68,237,49,07,22,161,28,09,82,168,49,17,07,215,18*7C
$GPGSV,3,3,12,19,17,226,35,22,02,105,,26,06,044,,30,02,180,*78
$GLGSV,1,1,00*65
$GNGLL,5154.79756,N,00234.92515,W,105643.00,A,A*60
$GNZDA,105643.00,13,11,2020,00,00*7F
$GNRMC,105644.00,A,5154.79761,N,00234.92519,W,0.010,,131120,,,A*77
$GNVTG,,T,,M,0.010,N,0.019,K,A*34
$GNGGA,105644.00,5154.79761,N,00234.92519,W,1,07,1.89,51.2,M,48.6,M,,*61
$GNGSA,A,3,06,09,19,03,04,07,17,,,,,,2.61,1.89,1.80*11
$GNGSA,A,3,,,,,,,,,,,,,2.61,1.89,1.80*10
$GPGSV,3,1,12,02,37,305,,03,21,099,31,04,51,063,31,05,02,283,*73
$GPGSV,3,2,12,06,68,237,49,07,22,161,28,09,82,168,49,17,07,215,19*7D
$GPGSV,3,3,12,19,17,226,35,22,02,105,,26,06,044,,30,02,180,*78
$GLGSV,1,1,00*65
$GNGLL,5154.79761,N,00234.92519,W,105644.00,A,A*6F
$GNZDA,105644.00,13,11,2020,00,00*78
$GNRMC,105645.00,A,5154.79769,N,00234.92524,W,0.012,,131120,,,A*72
$GNVTG,,T,,M,0.012,N,0.023,K,A*3F
$GNGGA,105645.00,5154.79769,N,00234.92524,W,1,07,1.89,51.1,M,48.6,M,,*65
$GNGSA,A,3,06,09,19,03,04,07,17,,,,,,2.61,1.89,1.80*11
$GNGSA,A,3,,,,,,,,,,,,,2.61,1.89,1.80*10
$GPGSV,3,1,12,02,37,305,,03,21,099,31,04,51,063,31,05,02,283,*73
$GPGSV,3,2,12,06,68,237,49,07,22,161,28,09,82,168,49,17,07,215,19*7D
$GPGSV,3,3,12,19,17,226,35,22,02,105,,26,06,044,,30,02,180,*78
$GLGSV,1,1,00*65
$GNGLL,5154.79769,N,00234.92524,W,105645.00,A,A*68
$GNZDA,105645.00,13,11,2020,00,00*79
$GNRMC,105646.00,A,5154.79780,N,00234.92527,W,0.015,,131120,,,A*72
$GNVTG,,T,,M,0.015,N,0.028,K,A*33
$GNGGA,105646.00,5154.79780,N,00234.92527,W,1,07,1.89,50.9,M,48.6,M,,*6B
$GNGSA,A,3,06,09,19,03,04,07,17,,,,,,2.61,1.89,1.80*11
$GNGSA,A,3,,,,,,,,,,,,,2.61,1.89,1.80*10
$GPGSV,3,1,12,02,37,305,,03,21,099,31,04,51,063,31,05,02,283,*73
$GPGSV,3,2,12,06,68,237,49,07,22,161,28,09,82,168,49,17,07,215,19*7D
$GPGSV,3,3,12,19,17,226,35,22,02,105,,26,06,044,,30,02,180,*78
$GLGSV,1,1,00*65
$GNGLL,5154.79780,N,00234.92527,W,105646.00,A,A*6F
$GNZDA,105646.00,13,11,2020,00,00*7A
$GNRMC,105647.00,A,5154.79786,N,00234.92529,W,0.016,,131120,,,A*78
$GNVTG,,T,,M,0.016,N,0.031,K,A*38
$GNGGA,105647.00,5154.79786,N,00234.92529,W,1,07,1.89,50.9,M,48.6,M,,*62
$GNGSA,A,3,06,09,19,03,04,07,17,,,,,,2.61,1.89,1.80*11
$GNGSA,A,3,,,,,,,,,,,,,2.61,1.89,1.80*10
$GPGSV,3,1,12,02,37,305,,03,21,099,31,04,51,063,31,05,02,283,*73
$GPGSV,3,2,12,06,68,237,49,07,22,161,28,09,82,168,49,17,07,215,19*7D
$GPGSV,3,3,12,19,17,226,35,22,02,105,,26,06,044,,30,02,180,*78
$GLGSV,1,1,00*65
$GNGLL,5154.79786,N,00234.92529,W,105647.00,A,A*66
$GNZDA,105647.00,13,11,2020,00,00*7B
$GNRMC,105648.00,A,5154.79790,N,00234.92531,W,0.018,,131120,,,A*77
$GNVTG,,T,,M,0.018,N,0.033,K,A*34
$GNGGA,105648.00,5154.79790,N,00234.92531,W,1,07,1.89,50.8,M,48.6,M,,*62
$GNGSA,A,3,06,09,19,03,04,07,17,,,,,,2.61,1.89,1.80*11
$GNGSA,A,3,,,,,,,,,,,,,2.61,1.89,1.80*10
$GPGSV,3,1,12,02,37,305,,03,21,099,31,04,51,063,31,05,02,283,*73
$GPGSV,3,2,12,06,68,236,49,07,22,161,28,09,82,168,49,17,07,215,18*7D
$GPGSV,3,3,12,19,17,226,35,22,02,105,,26,06,044,,30,02,180,*78
$GLGSV,1,1,00*65
$GNGLL,5154.79790,N,00234.92531,W,105648.00,A,A*67
$GNZDA,105648.00,13,11,2020,00,00*74
$GNRMC,105649.00,A,5154.79795,N,00234.92532,W,0.019,,131120,,,A*71
$GNVTG,,T,,M,0.019,N,0.035,K,A*33
$GNGGA,105649.00,5154.79795,N,00234.92532,W,1,07,1.89,50.7,M,48.6,M,,*6A
$GNGSA,A,3,06,09,19,03,04,07,17,,,,,,2.61,1.89,1.80*11
$GNGSA,A,3,,,,,,,,,,,,,2.61,1.89,1.80*10
$GPGSV,3,1,12,02,37,305,,03,21,099,31,04,51,063,31,05,02,283,*73
$GPGSV,3,2,12,06,68,236,49,07,22,160,28,09,82,168,49,17,07,215,18*7C
$GPGSV,3,3,12,19,17,226,35,22,02,105,,26,06,044,,30,02,180,*78
$GLGSV,1,1,00*65
$GNGLL,5154.79795,N,00234.92532,W,105649.00,A,A*60
$GNZDA,105649.00,13,11,2020,00,00*75
$GNRMC,105650.00,A,5154.79799,N,00234.92532,W,0.020,,131120,,,A*7F
$GNVTG,,T,,M,0.020,N,0.037,K,A*3B
$GNGGA,105650.00,5154.79799,N,00234.92532,W,1,07,1.89,50.6,M,48.6,M,,*6F
$GNGSA,A,3,06,09,19,03,04,07,17,,,,,,2.61,1.89,1.80*11
$GNGSA,A,3,,,,,,,,,,,,,2.61,1.89,1.80*10
$GPGSV,3,1,12,02,37,305,,03,21,099,31,04,51,063,30,05,02,283,*72
$GPGSV,3,2,12,06,68,236,49,07,22,160,28,09,82,168,49,17,07,215,17*73
